GPSTracker Version V01R00 settings...
checkBoxSecureSocket=False
comboBoxCOMPort=1
comboBoxBaudRate=4800
comboBoxByteSize=8
comboParity=0
comboBoxStopBits=0
numericUpDownUDPPort=5555
numericUpDownTCPPort=4444
numericUpDownReload=0
textBoxTcpIP=192.168.0.1
comboBoxFile=D:\uCenter\vuelo.txt
trackBarFileSpeed=1
m_bTrackHeading=False
m_bTrackLine=False
m_bRecordSession=True
m_bInfoText=True
checkBoxNoDelay=True
comboBoxFlowControl=0
buttonTrackColorCOM=-16776961
buttonTrackColorTCP=-256
buttonTrackColorUDP=-7278960
buttonTrackColor=-32704
textBoxLongitud=
textBoxLatitud=
numericUpDownAltitud=115
checkBoxSetAltitud=True
FILE COMBOBOX COUNT=2
C:\Program Files\NASA\World Wind 1.3\Plugins\GpsTracker\SampleSession.NavModuleSession
D:\uCenter\vuelo.txt
END UI CONTROLS
SOURCE COUNT=5
iNameIndex=0
bNeedApply=False
bSetup=True
sType=COM
sDescription=Cheadle
sComment=
sIconPath=C:\Program Files\NASA\World Wind 1.3\Plugins\GpsTracker\gps0.png
colorTrack=-16776961
fLat=0
fLon=0
bTrack=False
iCOMPort=1
iBaudRate=4800
iByteSize=8
iSelectedItem=0
iParity=0
iStopBits=0
iFlowControl=0
END SOURCE INDEX=0
iNameIndex=1
bNeedApply=False
bSetup=True
sType=File
sDescription=Cessna 152
sComment=
sIconPath=C:\Program Files\NASA\World Wind 1.3\Plugins\GpsTracker\gps1.png
colorTrack=-65536
fLat=0
fLon=0
bTrack=True
sFileName=D:\uCenter\vuelo.txt
bNoDelay=True
bTrackAtOnce=False
iPlaySpeed=0
iFilePlaySpeed=0
sFileNameSession=C:\Program Files\NASA\World Wind 1.3\Plugins\GpsTracker\DownloadedFile1.gpsTracker
iReload=0
bForcePreprocessing=False
END SOURCE INDEX=1
iNameIndex=2
bNeedApply=False
bSetup=True
sType=File
sDescription=Cessna 152 Track
sComment=
sIconPath=C:\Program Files\NASA\World Wind 1.3\Plugins\GpsTracker\gps2.png
colorTrack=-32704
fLat=0
fLon=0
bTrack=False
sFileName=*PLUGINDIR*\vuelo.TrackAtOnce
bNoDelay=True
bTrackAtOnce=True
iPlaySpeed=0
iFilePlaySpeed=0
sFileNameSession=
iReload=0
bForcePreprocessing=False
END SOURCE INDEX=2
iNameIndex=3
bNeedApply=False
bSetup=True
sType=POI
sDescription=Calgary
sComment=
sIconPath=C:\Program Files\NASA\World Wind 1.3\Plugins\GpsTracker\poi3.png
colorTrack=0
fLat=51.0540390014648
fLon=-114.07243347168
bTrack=False
fLat=51.0540390014648
fLon=-114.07243347168
END SOURCE INDEX=3
iNameIndex=4
bNeedApply=False
bSetup=True
sType=POI
sDescription=Carseland
sComment=
sIconPath=C:\Program Files\NASA\World Wind 1.3\Plugins\GpsTracker\poi4.png
colorTrack=0
fLat=50.8527488708496
fLon=-113.468879699707
bTrack=False
fLat=50.8527488708496
fLon=-113.468879699707
END SOURCE INDEX=4
--------------------------------------------------
0,$GPGGA,184744,5100.8570,N,11332.5702,W,1,04,1.45,990.6,M,-17.7,M,,*48
1,$GPRMC,185110,A,5044.1013,N,11356.0976,W,1.566,93.2,200805,17.4,E*67
1,$GPGGA,185111,5044.1013,N,11356.0966,W,1,06,1.27,1096.4,M,-17.4,M,,*75E
1,$GPRMC,185111,A,5044.1013,N,11356.0966,W,2.220,99.8,200805,17.4,E*6175E
1,$GPGGA,185112,5044.1012,N,11356.0953,W,1,06,1.27,1096.5,M,-17.4,M,,*70E
0,$GPRMC,184744,A,5100.8570,N,11332.5702,W,0.000,0.0,030906,17.2,E*5A
1,$GPRMC,185112,A,5044.1012,N,11356.0953,W,3.383,95.6,200805,17.4,E*6E70E
1,$GPGGA,185113,5044.1011,N,11356.0935,W,1,07,1.27,1096.4,M,-17.4,M,,*72E
1,$GPRMC,185113,A,5044.1011,N,11356.0935,W,4.443,95.7,200805,17.4,E*6172E
0,$GPGGA,184745,5100.8570,N,11332.5702,W,1,04,1.45,990.8,M,-17.7,M,,*47
1,$GPGGA,185114,5044.1009,N,11356.0912,W,1,06,1.27,1096.4,M,-17.4,M,,*78B
1,$GPRMC,185114,A,5044.1009,N,11356.0912,W,5.474,101.5,200805,17.4,E*518B
1,$GPGGA,185115,5044.1003,N,11356.0886,W,1,06,1.27,1096.4,M,-17.4,M,,*7FE
1,$GPRMC,185115,A,5044.1003,N,11356.0886,W,6.742,110.6,200805,17.4,E*50FE
1,$GPGGA,185116,5044.0993,N,11356.0857,W,1,07,1.27,1096.6,M,-17.4,M,,*72E
0,$GPRMC,184745,A,5100.8570,N,11332.5702,W,0.000,0.0,030906,17.2,E*5B
1,$GPRMC,185116,A,5044.0993,N,11356.0857,W,7.753,121.1,200805,17.4,E*5A2E
1,$GPGGA,185117,5044.0978,N,11356.0828,W,1,06,1.27,1096.4,M,-17.4,M,,*7DB
1,$GPRMC,185117,A,5044.0978,N,11356.0828,W,8.799,131.4,200805,17.4,E*5BDB
1,$GPGGA,185118,5044.0958,N,11356.0798,W,1,06,1.27,1096.3,M,-17.4,M,,*73E
1,$GPRMC,185118,A,5044.0958,N,11356.0798,W,10.178,138.2,200805,17.4,E*6DE
1,$GPGGA,185119,5044.0934,N,11356.0768,W,1,05,1.27,1096.2,M,-17.4,M,,*75A
1,$GPRMC,185119,A,5044.0934,N,11356.0768,W,11.330,143.0,200805,17.4,E*68A
1,$GPGGA,185120,5044.0905,N,11356.0738,W,1,07,1.27,1096.5,M,-17.4,M,,*7DF
1,$GPRMC,185120,A,5044.0905,N,11356.0738,W,12.219,149.0,200805,17.4,E*66F
1,$GPGGA,185121,5044.0874,N,11356.0712,W,1,07,1.27,1096.7,M,-17.4,M,,*71F
1,$GPRMC,185121,A,5044.0874,N,11356.0712,W,12.980,155.1,200805,17.4,E*6FF
1,$GPGGA,185122,5044.0839,N,11356.0690,W,1,07,1.27,1096.7,M,-17.4,M,,*70F
0,$GPGGA,184746,5100.8570,N,11332.5702,W,1,04,1.45,990.7,M,-17.7,M,,*4B
1,$GPRMC,185122,A,5044.0839,N,11356.0690,W,13.692,160.6,200805,17.4,E*62F
1,$GPGGA,185123,5044.0799,N,11356.0672,W,1,07,1.27,1096.8,M,-17.4,M,,*77F
1,$GPRMC,185123,A,5044.0799,N,11356.0672,W,15.075,165.9,200805,17.4,E*69F
1,$GPGGA,185124,5044.0756,N,11356.0658,W,1,07,1.27,1096.9,M,-17.4,M,,*7AF
1,$GPRMC,185124,A,5044.0756,N,11356.0658,W,16.132,170.4,200805,17.4,E*6DF
1,$GPGGA,185125,5044.0711,N,11356.0647,W,1,07,1.27,1096.9,M,-17.4,M,,*76F
1,$GPRMC,185125,A,5044.0711,N,11356.0647,W,16.891,173.2,200805,17.4,E*64F
1,$GPGGA,185126,5044.0662,N,11356.0640,W,1,06,1.27,1096.8,M,-17.4,M,,*77F
1,$GPRMC,185126,A,5044.0662,N,11356.0640,W,17.707,175.3,200805,17.4,E*63F
0,$GPRMC,184746,A,5100.8570,N,11332.5702,W,0.000,0.0,030906,17.2,E*58
1,$GPGGA,185127,5044.0611,N,11356.0633,W,1,07,1.27,1096.8,M,-17.4,M,,*77A
1,$GPRMC,185127,A,5044.0611,N,11356.0633,W,18.595,176.2,200805,17.4,E*66A
1,$GPGGA,185128,5044.0557,N,11356.0627,W,1,07,1.27,1096.9,M,-17.4,M,,*7DF
1,$GPRMC,185128,A,5044.0557,N,11356.0627,W,19.343,176.0,200805,17.4,E*63F
1,$GPGGA,185129,5044.0502,N,11356.0621,W,1,07,1.27,1096.9,M,-17.4,M,,*7AF
1,$GPRMC,185129,A,5044.0502,N,11356.0621,W,19.990,175.8,200805,17.4,E*6BF
0,$GPGGA,184747,5100.8570,N,11332.5702,W,1,04,1.45,990.5,M,-17.7,M,,*48
1,$GPGGA,185130,5044.0445,N,11356.0614,W,1,07,1.27,1096.8,M,-17.4,M,,*77F
1,$GPRMC,185130,A,5044.0445,N,11356.0614,W,20.678,176.1,200805,17.4,E*6EF
0,$GPRMC,184747,A,5100.8570,N,11332.5702,W,0.000,0.0,030906,17.2,E*59
1,$GPGGA,185131,5044.0386,N,11356.0608,W,1,07,1.27,1096.9,M,-17.4,M,,*72F
1,$GPRMC,185131,A,5044.0386,N,11356.0608,W,21.410,176.4,200805,17.4,E*62F
1,$GPGGA,185132,5044.0325,N,11356.0602,W,1,07,1.27,1096.9,M,-17.4,M,,*72F
1,$GPRMC,185132,A,5044.0325,N,11356.0602,W,22.011,177.0,200805,17.4,E*61F
1,$GPGGA,185133,5044.0262,N,11356.0597,W,1,07,1.27,1096.7,M,-17.4,M,,*70F
1,$GPRMC,185133,A,5044.0262,N,11356.0597,W,22.600,177.6,200805,17.4,E*6DF
1,$GPGGA,185134,5044.0198,N,11356.0593,W,1,07,1.27,1096.5,M,-17.4,M,,*77F
1,$GPRMC,185134,A,5044.0198,N,11356.0593,W,23.133,177.6,200805,17.4,E*6EF
1,$GPGGA,185135,5044.0133,N,11356.0588,W,1,07,1.27,1096.4,M,-17.4,M,,*7CF
1,$GPRMC,185135,A,5044.0133,N,11356.0588,W,23.830,176.7,200805,17.4,E*6EF
0,$GPGGA,184748,5100.8570,N,11332.5702,W,1,04,1.45,990.6,M,-17.7,M,,*44
1,$GPGGA,185136,5044.0066,N,11356.0580,W,1,07,1.27,1096.2,M,-17.4,M,,*70F
1,$GPRMC,185136,A,5044.0066,N,11356.0580,W,24.152,175.6,200805,17.4,E*6CF
1,$GPGGA,185137,5043.9998,N,11356.0572,W,1,07,1.27,1096.1,M,-17.4,M,,*79F
1,$GPRMC,185137,A,5043.9998,N,11356.0572,W,24.783,175.9,200805,17.4,E*63F
1,$GPGGA,185138,5043.9928,N,11356.0566,W,1,07,1.27,1095.9,M,-17.4,M,,*73F
1,$GPRMC,185138,A,5043.9928,N,11356.0566,W,25.129,177.0,200805,17.4,E*6EF
1,$GPGGA,185139,5043.9857,N,11356.0561,W,1,07,1.27,1095.8,M,-17.4,M,,*7DF
1,$GPRMC,185139,A,5043.9857,N,11356.0561,W,25.687,178.2,200805,17.4,E*6FF
1,$GPGGA,185140,5043.9785,N,11356.0557,W,1,07,1.27,1095.7,M,-17.4,M,,*79F
1,$GPRMC,185140,A,5043.9785,N,11356.0557,W,26.242,177.6,200805,17.4,E*61F
1,$GPGGA,185141,5043.9711,N,11356.0552,W,1,07,1.27,1095.5,M,-17.4,M,,*72F
0,$GPRMC,184748,A,5100.8570,N,11332.5702,W,0.000,0.0,030906,17.2,E*56
1,$GPRMC,185141,A,5043.9711,N,11356.0552,W,26.579,177.4,200805,17.4,E*65F
1,$GPGGA,185142,5043.9637,N,11356.0547,W,1,07,1.27,1095.3,M,-17.4,M,,*76F
1,$GPRMC,185142,A,5043.9637,N,11356.0547,W,27.114,177.6,200805,17.4,E*6BF
1,$GPGGA,185143,5043.9561,N,11356.0542,W,1,07,1.27,1095.0,M,-17.4,M,,*71F
1,$GPRMC,185143,A,5043.9561,N,11356.0542,W,27.387,177.5,200805,17.4,E*64F
1,$GPGGA,185144,5043.9484,N,11356.0535,W,1,07,1.27,1094.9,M,-17.4,M,,*74F
0,$GPGGA,184749,5100.8570,N,11332.5702,W,1,04,1.45,989.9,M,-17.7,M,,*42
1,$GPRMC,185144,A,5043.9484,N,11356.0535,W,27.969,176.7,200805,17.4,E*60F
1,$GPGGA,185145,5043.9406,N,11356.0528,W,1,07,1.27,1094.7,M,-17.4,M,,*7DF
1,$GPRMC,185145,A,5043.9406,N,11356.0528,W,28.398,176.2,200805,17.4,E*69F
0,$GPRMC,184749,A,5100.8570,N,11332.5702,W,0.000,0.0,030906,17.2,E*57
1,$GPGGA,185146,5043.9327,N,11356.0519,W,1,06,1.27,1094.4,M,-17.4,M,,*7AF
1,$GPRMC,185146,A,5043.9327,N,11356.0519,W,28.701,175.8,200805,17.4,E*61F
1,$GPGGA,185147,5043.9247,N,11356.0509,W,1,06,1.27,1094.2,M,-17.4,M,,*7BA
1,$GPRMC,185147,A,5043.9247,N,11356.0509,W,28.942,175.6,200805,17.4,E*61A
1,$GPGGA,185148,5043.9167,N,11356.0501,W,1,07,1.27,1093.7,M,-17.4,M,,*7EA
1,$GPRMC,185148,A,5043.9167,N,11356.0501,W,28.984,176.7,200805,17.4,E*6FA
1,$GPGGA,185149,5043.9086,N,11356.0495,W,1,07,1.27,1093.4,M,-17.4,M,,*7EF
1,$GPRMC,185149,A,5043.9086,N,11356.0495,W,29.139,177.9,200805,17.4,E*6CF
1,$GPGGA,185150,5043.9006,N,11356.0491,W,1,07,1.27,1093.3,M,-17.4,M,,*7DF
1,$GPRMC,185150,A,5043.9006,N,11356.0491,W,29.182,178.5,200805,17.4,E*6BF
1,$GPGGA,185151,5043.8925,N,11356.0488,W,1,07,1.27,1093.0,M,-17.4,M,,*7EF
0,$GPGGA,184750,5100.8570,N,11332.5702,W,1,04,1.45,989.2,M,-17.7,M,,*41
1,$GPRMC,185151,A,5043.8925,N,11356.0488,W,28.924,178.3,200805,17.4,E*68F
1,$GPGGA,185152,5043.8847,N,11356.0484,W,1,07,1.27,1092.8,M,-17.4,M,,*7DF
1,$GPRMC,185152,A,5043.8847,N,11356.0484,W,27.904,178.5,200805,17.4,E*69F
1,$GPGGA,185153,5043.8772,N,11356.0480,W,1,07,1.27,1092.5,M,-17.4,M,,*7CF
1,$GPRMC,185153,A,5043.8772,N,11356.0480,W,26.938,177.5,200805,17.4,E*64F
1,$GPGGA,185154,5043.8700,N,11356.0475,W,1,07,1.27,1092.2,M,-17.4,M,,*73F
1,$GPRMC,185154,A,5043.8700,N,11356.0475,W,25.599,177.4,200805,17.4,E*69F
1,$GPGGA,185155,5043.8631,N,11356.0469,W,1,07,1.27,1092.1,M,-17.4,M,,*7FF
1,$GPRMC,185155,A,5043.8631,N,11356.0469,W,24.601,176.5,200805,17.4,E*65F
1,$GPGGA,185156,5043.8566,N,11356.0462,W,1,06,1.27,1092.0,M,-17.4,M,,*76F
1,$GPRMC,185156,A,5043.8566,N,11356.0462,W,23.316,176.7,200805,17.4,E*6AF
1,$GPGGA,185157,5043.8505,N,11356.0458,W,1,07,1.27,1091.6,M,-17.4,M,,*7FA
1,$GPRMC,185157,A,5043.8505,N,11356.0458,W,21.816,177.5,200805,17.4,E*6DA
0,$GPRMC,184750,A,5100.8570,N,11332.5702,W,0.000,0.0,030906,17.2,E*5F
1,$GPGGA,185158,5043.8448,N,11356.0453,W,1,06,1.27,1091.5,M,-17.4,M,,*71F
1,$GPRMC,185158,A,5043.8448,N,11356.0453,W,20.428,176.8,200805,17.4,E*6DF
1,$GPGGA,185159,5043.8393,N,11356.0448,W,1,07,1.27,1091.4,M,-17.4,M,,*7BA
1,$GPRMC,185159,A,5043.8393,N,11356.0448,W,18.957,176.7,200805,17.4,E*66A
0,$GPGGA,184751,5100.8570,N,11332.5702,W,1,04,1.45,989.6,M,-17.7,M,,*44
1,$GPGGA,185200,5043.8342,N,11356.0443,W,1,06,1.27,1091.2,M,-17.4,M,,*74F
1,$GPRMC,185200,A,5043.8342,N,11356.0443,W,18.505,176.6,200805,17.4,E*64F
1,$GPGGA,185201,5043.8292,N,11356.0441,W,1,07,1.27,1091.1,M,-17.4,M,,*79A
1,$GPRMC,185201,A,5043.8292,N,11356.0441,W,17.628,179.2,200805,17.4,E*63A
0,$GPRMC,184751,A,5100.8570,N,11332.5702,W,0.000,0.0,030906,17.2,E*5E
1,$GPGGA,185202,5043.8244,N,11356.0442,W,1,07,1.27,1091.0,M,-17.4,M,,*73F
1,$GPRMC,185202,A,5043.8244,N,11356.0442,W,17.013,183.1,200805,17.4,E*60F
1,$GPGGA,185203,5043.8198,N,11356.0447,W,1,07,1.27,1090.9,M,-17.4,M,,*7DF
1,$GPRMC,185203,A,5043.8198,N,11356.0447,W,16.393,184.4,200805,17.4,E*6EF
1,$GPGGA,185204,5043.8155,N,11356.0455,W,1,07,1.27,1090.8,M,-17.4,M,,*79F
1,$GPRMC,185204,A,5043.8155,N,11356.0455,W,15.538,187.9,200805,17.4,E*61F
1,$GPGGA,185205,5043.8115,N,11356.0465,W,1,07,1.27,1090.6,M,-17.4,M,,*71F
1,$GPRMC,185205,A,5043.8115,N,11356.0465,W,14.250,190.3,200805,17.4,E*63F
0,$GPGGA,184752,5100.8570,N,11332.5702,W,1,04,1.45,988.8,M,-17.7,M,,*48
1,$GPGGA,185206,5043.8078,N,11356.0476,W,1,06,1.27,1090.5,M,-17.4,M,,*78F
1,$GPRMC,185206,A,5043.8078,N,11356.0476,W,13.235,190.3,200805,17.4,E*6CF
1,$GPGGA,185207,5043.8045,N,11356.0486,W,1,06,1.27,1090.3,M,-17.4,M,,*7EA
1,$GPRMC,185207,A,5043.8045,N,11356.0486,W,11.925,189.9,200805,17.4,E*66A
1,$GPGGA,185208,5043.8016,N,11356.0491,W,1,07,1.27,1089.9,M,-17.4,M,,*72A
1,$GPRMC,185208,A,5043.8016,N,11356.0491,W,10.216,182.4,200805,17.4,E*65A
1,$GPGGA,185209,5043.7994,N,11356.0489,W,1,07,1.27,1089.4,M,-17.4,M,,*7BF
1,$GPRMC,185209,A,5043.7994,N,11356.0489,W,7.932,170.9,200805,17.4,E*5ABF
1,$GPGGA,185210,5043.7978,N,11356.0478,W,1,07,1.27,1089.1,M,-17.4,M,,*7AF
1,$GPRMC,185210,A,5043.7978,N,11356.0478,W,5.906,146.2,200805,17.4,E*55AF
1,$GPGGA,185211,5043.7971,N,11356.0464,W,1,07,1.27,1088.8,M,-17.4,M,,*77F
0,$GPRMC,184752,A,5100.8570,N,11332.5702,W,0.000,0.0,030906,17.2,E*5D
1,$GPRMC,185211,A,5043.7971,N,11356.0464,W,3.729,116.9,200805,17.4,E*5B7F
1,$GPGGA,185212,5043.7970,N,11356.0449,W,1,07,1.27,1088.7,M,-17.4,M,,*75B
1,$GPRMC,185212,A,5043.7970,N,11356.0449,W,3.262,91.3,200805,17.4,E*6875B
1,$GPGGA,185213,5043.7972,N,11356.0437,W,1,06,1.27,1088.7,M,-17.4,M,,*7EB
1,$GPRMC,185213,A,5043.7972,N,11356.0437,W,2.693,71.5,200805,17.4,E*617EB
1,$GPGGA,185214,5043.7976,N,11356.0427,W,1,07,1.27,1088.5,M,-17.4,M,,*7FE
0,$GPGGA,184753,5100.8570,N,11332.5702,W,1,04,1.45,988.5,M,-17.7,M,,*44
1,$GPRMC,185214,A,5043.7976,N,11356.0427,W,2.742,51.9,200805,17.4,E*607FE
1,$GPGGA,185215,5043.7982,N,11356.0421,W,1,07,1.27,1088.2,M,-17.4,M,,*74B
1,$GPRMC,185215,A,5043.7982,N,11356.0421,W,2.172,23.3,200805,17.4,E*6674B
0,$GPRMC,184753,A,5100.8570,N,11332.5702,W,0.000,0.0,030906,17.2,E*5C
1,$GPGGA,185216,5043.7989,N,11356.0419,W,1,07,1.27,1088.1,M,-17.4,M,,*74B
1,$GPRMC,185216,A,5043.7989,N,11356.0419,W,2.564,10.6,200805,17.4,E*6374B
1,$GPGGA,185217,5043.7997,N,11356.0418,W,1,07,1.27,1088.0,M,-17.4,M,,*7AB
1,$GPRMC,185217,A,5043.7997,N,11356.0418,W,3.020,2.0,200805,17.4,E*5D*7AB
1,$GPGGA,185218,5043.8006,N,11356.0418,W,1,07,1.27,1087.9,M,-17.4,M,,*7DB
1,$GPRMC,185218,A,5043.8006,N,11356.0418,W,2.946,357.5,200805,17.4,E*52DB
1,$GPGGA,185219,5043.8013,N,11356.0419,W,1,07,1.27,1088.0,M,-17.4,M,,*7F8
1,$GPRMC,185219,A,5043.8013,N,11356.0419,W,2.243,356.9,200805,17.4,E*55F8
1,$GPGGA,185220,5043.8018,N,11356.0420,W,1,07,1.27,1088.0,M,-17.4,M,,*748
1,$GPRMC,185220,A,5043.8018,N,11356.0420,W,1.854,356.7,200805,17.4,E*5F48
1,$GPGGA,185221,5043.8022,N,11356.0421,W,1,07,1.27,1088.0,M,-17.4,M,,*7D8
1,$GPRMC,185221,A,5043.8022,N,11356.0421,W,1.064,356.3,200805,17.4,E*59D8
0,$GPGGA,184754,5100.8570,N,11332.5702,W,1,04,1.45,988.8,M,-17.7,M,,*4E
1,$GPGGA,185222,5043.8022,N,11356.0421,W,1,07,1.27,1088.1,M,-17.4,M,,*7F8
1,$GPRMC,185222,A,5043.8022,N,11356.0421,W,0.000,0.0,200805,17.4,E*5AD7F8
1,$GPGGA,185223,5043.8022,N,11356.0421,W,1,07,1.27,1088.1,M,-17.4,M,,*7E8
1,$GPRMC,185223,A,5043.8022,N,11356.0421,W,0.000,0.0,200805,17.4,E*5B*7E8
1,$GPGGA,185224,5043.8022,N,11356.0421,W,1,07,1.27,1088.1,M,-17.4,M,,*798
1,$GPRMC,185224,A,5043.8022,N,11356.0421,W,0.000,0.0,200805,17.4,E*5CD798
1,$GPGGA,185225,5043.8031,N,11356.0422,W,1,07,1.27,1088.2,M,-17.4,M,,*7A8
1,$GPRMC,185225,A,5043.8031,N,11356.0422,W,1.607,356.8,200805,17.4,E*54A8
1,$GPGGA,185226,5043.8037,N,11356.0423,W,1,07,1.27,1088.3,M,-17.4,M,,*7F8
1,$GPRMC,185226,A,5043.8037,N,11356.0423,W,1.921,355.0,200805,17.4,E*50F8
0,$GPRMC,184754,A,5100.8570,N,11332.5702,W,0.000,0.0,030906,17.2,E*5B
1,$GPGGA,185227,5043.8043,N,11356.0423,W,1,07,1.27,1088.3,M,-17.4,M,,*7D8
1,$GPRMC,185227,A,5043.8043,N,11356.0423,W,2.566,357.8,200805,17.4,E*54D8
1,$GPGGA,185228,5043.8053,N,11356.0424,W,1,07,1.27,1088.2,M,-17.4,M,,*758
1,$GPRMC,185228,A,5043.8053,N,11356.0424,W,3.537,355.6,200805,17.4,E*5458
1,$GPGGA,185229,5043.8066,N,11356.0425,W,1,07,1.27,1088.4,M,-17.4,M,,*758
0,$GPGGA,184755,5100.8570,N,11332.5702,W,1,04,1.45,989.0,M,-17.7,M,,*46
1,$GPRMC,185229,A,5043.8066,N,11356.0425,W,5.415,356.9,200805,17.4,E*5958
1,$GPGGA,185230,5043.8087,N,11356.0427,W,1,07,1.27,1088.5,M,-17.4,M,,*718
1,$GPRMC,185230,A,5043.8087,N,11356.0427,W,8.262,355.1,200805,17.4,E*5C18
1,$GPGGA,185231,5043.8116,N,11356.0432,W,1,07,1.27,1088.5,M,-17.4,M,,*7D8
1,$GPRMC,185231,A,5043.8116,N,11356.0432,W,11.493,353.3,200805,17.4,E*648
0,$GPRMC,184755,A,5100.8570,N,11332.5702,W,0.000,0.0,030906,17.2,E*5A
1,$GPGGA,185232,5043.8155,N,11356.0440,W,1,07,1.27,1088.6,M,-17.4,M,,*7F8
1,$GPRMC,185232,A,5043.8155,N,11356.0440,W,15.243,350.6,200805,17.4,E*6C8
1,$GPGGA,185233,5043.8203,N,11356.0453,W,1,07,1.27,1088.6,M,-17.4,M,,*7C8
1,$GPRMC,185233,A,5043.8203,N,11356.0453,W,18.101,349.3,200805,17.4,E*6A8
1,$GPGGA,185234,5043.8258,N,11356.0464,W,1,07,1.27,1088.7,M,-17.4,M,,*708
1,$GPRMC,185234,A,5043.8258,N,11356.0464,W,20.519,354.3,200805,17.4,E*6D8
1,$GPGGA,185235,5043.8321,N,11356.0471,W,1,07,1.27,1088.8,M,-17.4,M,,*758
1,$GPRMC,185235,A,5043.8321,N,11356.0471,W,23.494,356.6,200805,17.4,E*678
1,$GPGGA,185236,5043.8392,N,11356.0476,W,1,07,1.27,1088.9,M,-17.4,M,,*788
1,$GPRMC,185236,A,5043.8392,N,11356.0476,W,26.579,357.7,200805,17.4,E*6C8
1,$GPGGA,185237,5043.8472,N,11356.0481,W,1,07,1.27,1089.2,M,-17.4,M,,*728
1,$GPRMC,185237,A,5043.8472,N,11356.0481,W,29.464,357.7,200805,17.4,E*6E8
1,$GPGGA,185238,5043.8559,N,11356.0486,W,1,07,1.27,1089.4,M,-17.4,M,,*748
0,$GPGGA,184756,5100.8570,N,11332.5702,W,1,04,1.45,988.8,M,-17.7,M,,*4C
1,$GPRMC,185238,A,5043.8559,N,11356.0486,W,32.284,357.2,200805,17.4,E*698
1,$GPGGA,185239,5043.8654,N,11356.0493,W,1,07,1.27,1089.6,M,-17.4,M,,*7D8
1,$GPRMC,185239,A,5043.8654,N,11356.0493,W,35.003,357.7,200805,17.4,E*6D8
1,$GPGGA,185240,5043.8757,N,11356.0500,W,1,07,1.27,1089.8,M,-17.4,M,,*748
1,$GPRMC,185240,A,5043.8757,N,11356.0500,W,37.657,357.2,200805,17.4,E*6A8
1,$GPGGA,185241,5043.8866,N,11356.0508,W,1,07,1.27,1090.1,M,-17.4,M,,*718
1,$GPRMC,185241,A,5043.8866,N,11356.0508,W,40.313,357.4,200805,17.4,E*6D8
1,$GPGGA,185242,5043.8983,N,11356.0516,W,1,07,1.27,1090.3,M,-17.4,M,,*758
1,$GPRMC,185242,A,5043.8983,N,11356.0516,W,42.756,357.2,200805,17.4,E*6A8
1,$GPGGA,185243,5043.9107,N,11356.0526,W,1,07,1.27,1090.7,M,-17.4,M,,*768
1,$GPRMC,185243,A,5043.9107,N,11356.0526,W,45.404,356.9,200805,17.4,E*648
1,$GPGGA,185244,5043.9239,N,11356.0538,W,1,07,1.27,1091.0,M,-17.4,M,,*768
0,$GPRMC,184756,A,5100.8570,N,11332.5702,W,0.000,0.0,030906,17.2,E*59
1,$GPRMC,185244,A,5043.9239,N,11356.0538,W,48.233,356.5,200805,17.4,E*618
1,$GPGGA,185245,5043.9378,N,11356.0551,W,1,07,1.27,1091.3,M,-17.4,M,,*7F8
1,$GPRMC,185245,A,5043.9378,N,11356.0551,W,50.978,356.7,200805,17.4,E*648
1,$GPGGA,185246,5043.9524,N,11356.0561,W,1,07,1.27,1091.8,M,-17.4,M,,*7B8
1,$GPRMC,185246,A,5043.9524,N,11356.0561,W,53.402,358.0,200805,17.4,E*618
1,$GPGGA,185247,5043.9678,N,11356.0569,W,1,07,1.27,1092.2,M,-17.4,M,,*718
0,$GPGGA,184757,5100.8570,N,11332.5702,W,1,04,1.45,989.1,M,-17.7,M,,*45
1,$GPRMC,185247,A,5043.9678,N,11356.0569,W,56.248,358.1,200805,17.4,E*6E8
1,$GPGGA,185248,5043.9839,N,11356.0578,W,1,07,1.27,1092.7,M,-17.4,M,,*708
0,$GPRMC,184757,A,5100.8570,N,11332.5702,W,0.000,0.0,030906,17.2,E*58
1,$GPRMC,185248,A,5043.9839,N,11356.0578,W,58.493,357.8,200805,17.4,E*628
1,$GPGGA,185249,5044.0005,N,11356.0590,W,1,07,1.27,1093.3,M,-17.4,M,,*7B8
1,$GPRMC,185249,A,5044.0005,N,11356.0590,W,60.548,357.2,200805,17.4,E*6A8
1,$GPGGA,185250,5044.0177,N,11356.0603,W,1,07,1.27,1094.1,M,-17.4,M,,*7B8
1,$GPRMC,185250,A,5044.0177,N,11356.0603,W,62.365,357.2,200805,17.4,E*648
1,$GPGGA,185251,5044.0353,N,11356.0618,W,1,07,1.27,1095.0,M,-17.4,M,,*748
1,$GPRMC,185251,A,5044.0353,N,11356.0618,W,64.213,357.1,200805,17.4,E*6E8
1,$GPGGA,185252,5044.0535,N,11356.0631,W,1,07,1.27,1096.2,M,-17.4,M,,*7B8
1,$GPRMC,185252,A,5044.0535,N,11356.0631,W,65.677,357.6,200805,17.4,E*608
1,$GPGGA,185253,5044.0719,N,11356.0643,W,1,07,1.27,1098.1,M,-17.4,M,,*7E8
1,$GPRMC,185253,A,5044.0719,N,11356.0643,W,66.651,357.6,200805,17.4,E*6F8
1,$GPGGA,185254,5044.0906,N,11356.0656,W,1,07,1.27,1100.7,M,-17.4,M,,*7B8
0,$GPGGA,184758,5100.8570,N,11332.5702,W,1,04,1.45,989.2,M,-17.7,M,,*49
1,$GPRMC,185254,A,5044.0906,N,11356.0656,W,67.150,357.5,200805,17.4,E*688
1,$GPGGA,185255,5044.1093,N,11356.0671,W,1,07,1.27,1104.3,M,-17.4,M,,*7B8
1,$GPRMC,185255,A,5044.1093,N,11356.0671,W,67.162,357.0,200805,17.4,E*6C8
1,$GPGGA,185256,5044.1279,N,11356.0686,W,1,07,1.27,1108.9,M,-17.4,M,,*708
1,$GPRMC,185256,A,5044.1279,N,11356.0686,W,66.382,357.0,200805,17.4,E*6C8
1,$GPGGA,185257,5044.1462,N,11356.0700,W,1,07,1.27,1114.1,M,-17.4,M,,*77C
1,$GPRMC,185257,A,5044.1462,N,11356.0700,W,65.514,357.8,200805,17.4,E*6CC
1,$GPGGA,185258,5044.1643,N,11356.0708,W,1,07,1.27,1119.4,M,-17.4,M,,*79C
1,$GPRMC,185258,A,5044.1643,N,11356.0708,W,64.649,358.8,200805,17.4,E*6FC
0,$GPRMC,184758,A,5100.8570,N,11332.5702,W,0.000,0.0,030906,17.2,E*57
1,$GPGGA,185259,5044.1821,N,11356.0712,W,1,07,1.27,1124.2,M,-17.4,M,,*71C
1,$GPRMC,185259,A,5044.1821,N,11356.0712,W,64.221,359.8,200805,17.4,E*64C
1,$GPGGA,185300,5044.2000,N,11356.0711,W,1,07,1.27,1128.1,M,-17.4,M,,*788
1,$GPRMC,185300,A,5044.2000,N,11356.0711,W,64.621,0.4,200805,17.4,E*65788
0,$GPGGA,184759,5100.8570,N,11332.5702,W,1,04,1.45,989.2,M,-17.7,M,,*48
1,$GPGGA,185301,5044.2179,N,11356.0709,W,1,07,1.27,1131.8,M,-17.4,M,,*7EC
1,$GPRMC,185301,A,5044.2179,N,11356.0709,W,64.868,0.6,200805,17.4,E*637EC
1,$GPGGA,185302,5044.2360,N,11356.0705,W,1,07,1.27,1135.0,M,-17.4,M,,*77C
1,$GPRMC,185302,A,5044.2360,N,11356.0705,W,65.393,0.8,200805,17.4,E*6677C
0,$GPRMC,184759,A,5100.8570,N,11332.5702,W,0.000,0.0,030906,17.2,E*56
1,$GPGGA,185303,5044.2542,N,11356.0702,W,1,07,1.27,1138.1,M,-17.4,M,,*7BC
1,$GPRMC,185303,A,5044.2542,N,11356.0702,W,66.072,0.6,200805,17.4,E*677BC
1,$GPGGA,185304,5044.2726,N,11356.0698,W,1,07,1.27,1141.2,M,-17.4,M,,*73C
1,$GPRMC,185304,A,5044.2726,N,11356.0698,W,66.541,0.8,200805,17.4,E*6973C
1,$GPGGA,185305,5044.2912,N,11356.0693,W,1,07,1.27,1144.4,M,-17.4,M,,*73C
1,$GPRMC,185305,A,5044.2912,N,11356.0693,W,66.826,1.0,200805,17.4,E*6F73C
1,$GPGGA,185306,5044.3098,N,11356.0688,W,1,07,1.27,1147.8,M,-17.4,M,,*7FC
1,$GPRMC,185306,A,5044.3098,N,11356.0688,W,67.395,1.1,200805,17.4,E*6F7FC
1,$GPGGA,185307,5044.3286,N,11356.0684,W,1,07,1.27,1151.5,M,-17.4,M,,*75C
1,$GPRMC,185307,A,5044.3286,N,11356.0684,W,67.674,0.8,200805,17.4,E*6D75C
1,$GPGGA,185308,5044.3475,N,11356.0678,W,1,07,1.27,1154.8,M,-17.4,M,,*7B8
0,$GPGGA,184800,5100.8570,N,11332.5702,W,1,04,1.45,989.2,M,-17.7,M,,*4B
1,$GPRMC,185308,A,5044.3475,N,11356.0678,W,68.056,1.4,200805,17.4,E*6F7B8
1,$GPGGA,185309,5044.3663,N,11356.0667,W,1,07,1.27,1158.4,M,-17.4,M,,*71C
1,$GPRMC,185309,A,5044.3663,N,11356.0667,W,67.851,2.7,200805,17.4,E*6571C
1,$GPGGA,185310,5044.3851,N,11356.0650,W,1,07,1.27,1162.9,M,-17.4,M,,*76C
1,$GPRMC,185310,A,5044.3851,N,11356.0650,W,67.354,3.6,200805,17.4,E*6876C
1,$GPGGA,185311,5044.4038,N,11356.0631,W,1,07,1.27,1167.7,M,-17.4,M,,*7B8
1,$GPRMC,185311,A,5044.4038,N,11356.0631,W,67.665,3.8,200805,17.4,E*677B8
1,$GPGGA,185312,5044.4226,N,11356.0612,W,1,07,1.27,1172.4,M,-17.4,M,,*738
1,$GPRMC,185312,A,5044.4226,N,11356.0612,W,67.841,3.6,200805,17.4,E*6E738
1,$GPGGA,185313,5044.4415,N,11356.0593,W,1,07,1.27,1176.3,M,-17.4,M,,*7D8
0,$GPRMC,184800,A,5100.8570,N,11332.5702,W,0.000,0.0,030906,17.2,E*55
1,$GPRMC,185313,A,5044.4415,N,11356.0593,W,68.246,3.7,200805,17.4,E*607D8
1,$GPGGA,185314,5044.4604,N,11356.0574,W,1,07,1.27,1180.3,M,-17.4,M,,*78C
1,$GPRMC,185314,A,5044.4604,N,11356.0574,W,68.263,3.7,200805,17.4,E*6B78C
1,$GPGGA,185315,5044.4793,N,11356.0553,W,1,07,1.27,1183.8,M,-17.4,M,,*7BC
0,$GPGGA,184801,5100.8570,N,11332.5702,W,1,04,1.45,988.9,M,-17.7,M,,*40
1,$GPRMC,185315,A,5044.4793,N,11356.0553,W,68.525,4.0,200805,17.4,E*657BC
1,$GPGGA,185316,5044.4982,N,11356.0532,W,1,07,1.27,1187.7,M,-17.4,M,,*7AC
1,$GPRMC,185316,A,5044.4982,N,11356.0532,W,68.366,4.1,200805,17.4,E*6F7AC
1,$GPGGA,185317,5044.5172,N,11356.0512,W,1,07,1.27,1191.3,M,-17.4,M,,*7CC
1,$GPRMC,185317,A,5044.5172,N,11356.0512,W,68.452,3.8,200805,17.4,E*647CC
1,$GPGGA,185318,5044.5361,N,11356.0493,W,1,07,1.27,1194.6,M,-17.4,M,,*7BC
0,$GPRMC,184801,A,5100.8570,N,11332.5702,W,0.000,0.0,030906,17.2,E*54
1,$GPRMC,185318,A,5044.5361,N,11356.0493,W,68.544,3.5,200805,17.4,E*687BC
1,$GPGGA,185319,5044.5552,N,11356.0474,W,1,07,1.27,1198.2,M,-17.4,M,,*7DC
1,$GPRMC,185319,A,5044.5552,N,11356.0474,W,68.843,3.5,200805,17.4,E*6C7DC
1,$GPGGA,185320,5044.5744,N,11356.0456,W,1,07,1.27,1201.6,M,-17.4,M,,*75C
1,$GPRMC,185320,A,5044.5744,N,11356.0456,W,69.580,3.4,200805,17.4,E*6175C
1,$GPGGA,185321,5044.5938,N,11356.0437,W,1,07,1.27,1205.2,M,-17.4,M,,*76C
1,$GPRMC,185321,A,5044.5938,N,11356.0437,W,70.118,3.7,200805,17.4,E*6C76C
1,$GPGGA,185322,5044.6132,N,11356.0415,W,1,07,1.27,1209.0,M,-17.4,M,,*7AC
1,$GPRMC,185322,A,5044.6132,N,11356.0415,W,70.352,4.3,200805,17.4,E*617AC
1,$GPGGA,185323,5044.6328,N,11356.0391,W,1,07,1.27,1212.7,M,-17.4,M,,*74C
1,$GPRMC,185323,A,5044.6328,N,11356.0391,W,70.839,4.5,200805,17.4,E*6274C
0,$GPGGA,184802,5100.8570,N,11332.5702,W,1,04,1.45,989.8,M,-17.7,M,,*43
1,$GPGGA,185324,5044.6525,N,11356.0364,W,1,07,1.27,1216.1,M,-17.4,M,,*70C
1,$GPRMC,185324,A,5044.6525,N,11356.0364,W,71.320,5.2,200805,17.4,E*6070C
1,$GPGGA,185325,5044.6722,N,11356.0334,W,1,07,1.27,1219.9,M,-17.4,M,,*76C
1,$GPRMC,185325,A,5044.6722,N,11356.0334,W,71.410,5.7,200805,17.4,E*6076C
1,$GPGGA,185326,5044.6919,N,11356.0303,W,1,07,1.27,1223.8,M,-17.4,M,,*7FC
1,$GPRMC,185326,A,5044.6919,N,11356.0303,W,71.497,5.7,200805,17.4,E*6E7FC
1,$GPGGA,185327,5044.7117,N,11356.0271,W,1,07,1.27,1227.8,M,-17.4,M,,*79C
1,$GPRMC,185327,A,5044.7117,N,11356.0271,W,71.613,5.8,200805,17.4,E*6D79C
1,$GPGGA,185328,5044.7315,N,11356.0239,W,1,07,1.27,1231.9,M,-17.4,M,,*7CC
1,$GPRMC,185328,A,5044.7315,N,11356.0239,W,71.610,6.0,200805,17.4,E*667CC
0,$GPRMC,184802,A,5100.8570,N,11332.5702,W,0.000,0.0,030906,17.2,E*57
1,$GPGGA,185329,5044.7513,N,11356.0207,W,1,07,1.27,1236.0,M,-17.4,M,,*7EC
1,$GPRMC,185329,A,5044.7513,N,11356.0207,W,71.789,5.8,200805,17.4,E*607EC
1,$GPGGA,185330,5044.7711,N,11356.0175,W,1,07,1.27,1240.2,M,-17.4,M,,*73E
1,$GPRMC,185330,A,5044.7711,N,11356.0175,W,71.734,6.0,200805,17.4,E*6373E
0,$GPGGA,184803,5100.8570,N,11332.5702,W,1,04,1.45,989.9,M,-17.7,M,,*43
1,$GPGGA,185331,5044.7909,N,11356.0142,W,1,07,1.27,1244.1,M,-17.4,M,,*76E
1,$GPRMC,185331,A,5044.7909,N,11356.0142,W,71.562,6.1,200805,17.4,E*6176E
1,$GPGGA,185332,5044.8106,N,11356.0107,W,1,07,1.27,1247.3,M,-17.4,M,,*7DE
1,$GPRMC,185332,A,5044.8106,N,11356.0107,W,71.596,6.5,200805,17.4,E*647DE
1,$GPGGA,185333,5044.8303,N,11356.0070,W,1,07,1.27,1249.9,M,-17.4,M,,*7EE
1,$GPRMC,185333,A,5044.8303,N,11356.0070,W,71.912,6.9,200805,17.4,E*6F7EE
0,$GPRMC,184803,A,5100.8570,N,11332.5702,W,0.000,0.0,030906,17.2,E*56
1,$GPGGA,185334,5044.8501,N,11356.0032,W,1,07,1.27,1252.7,M,-17.4,M,,*7FE
1,$GPRMC,185334,A,5044.8501,N,11356.0032,W,72.057,7.1,200805,17.4,E*687FE
1,$GPGGA,185335,5044.8700,N,11355.9992,W,1,07,1.27,1254.9,M,-17.4,M,,*7CE
1,$GPRMC,185335,A,5044.8700,N,11355.9992,W,72.704,7.2,200805,17.4,E*617CE
1,$GPGGA,185336,5044.8901,N,11355.9952,W,1,07,1.27,1256.9,M,-17.4,M,,*7EE
1,$GPRMC,185336,A,5044.8901,N,11355.9952,W,73.199,7.1,200805,17.4,E*617EE
1,$GPGGA,185337,5044.9103,N,11355.9913,W,1,07,1.27,1259.3,M,-17.4,M,,*74E
1,$GPRMC,185337,A,5044.9103,N,11355.9913,W,73.443,7.0,200805,17.4,E*6D74E
1,$GPGGA,185338,5044.9306,N,11355.9873,W,1,07,1.27,1261.8,M,-17.4,M,,*7BE
1,$GPRMC,185338,A,5044.9306,N,11355.9873,W,73.600,7.1,200805,17.4,E*667BE
1,$GPGGA,185339,5044.9508,N,11355.9834,W,1,07,1.27,1264.6,M,-17.4,M,,*7AE
0,$GPGGA,184804,5100.8570,N,11332.5702,W,1,04,1.45,989.7,M,-17.7,M,,*4A
1,$GPRMC,185339,A,5044.9508,N,11355.9834,W,73.602,7.2,200805,17.4,E*6D7AE
1,$GPGGA,185340,5044.9710,N,11355.9795,W,1,07,1.27,1267.3,M,-17.4,M,,*7DE
1,$GPRMC,185340,A,5044.9710,N,11355.9795,W,73.139,6.8,200805,17.4,E*687DE
1,$GPGGA,185341,5044.9912,N,11355.9760,W,1,07,1.27,1270.9,M,-17.4,M,,*76E
1,$GPRMC,185341,A,5044.9912,N,11355.9760,W,72.878,6.0,200805,17.4,E*6A76E
1,$GPGGA,185342,5045.0114,N,11355.9729,W,1,07,1.27,1274.9,M,-17.4,M,,*7AE
1,$GPRMC,185342,A,5045.0114,N,11355.9729,W,72.929,5.1,200805,17.4,E*657AE
1,$GPGGA,185343,5045.0316,N,11355.9702,W,1,07,1.27,1279.4,M,-17.4,M,,*72E
1,$GPRMC,185343,A,5045.0316,N,11355.9702,W,72.941,4.7,200805,17.4,E*6472E
1,$GPGGA,185344,5045.0518,N,11355.9675,W,1,07,1.27,1283.5,M,-17.4,M,,*78E
0,$GPRMC,184804,A,5100.8570,N,11332.5702,W,0.000,0.0,030906,17.2,E*51
1,$GPRMC,185344,A,5045.0518,N,11355.9675,W,73.385,5.1,200805,17.4,E*6E78E
1,$GPGGA,185345,5045.0721,N,11355.9644,W,1,07,1.27,1287.5,M,-17.4,M,,*77E
1,$GPRMC,185345,A,5045.0721,N,11355.9644,W,73.320,5.9,200805,17.4,E*6277E
1,$GPGGA,185346,5045.0922,N,11355.9607,W,1,07,1.27,1291.1,M,-17.4,M,,*7DE
0,$GPGGA,184805,5100.8570,N,11332.5702,W,1,04,1.45,989.6,M,-17.7,M,,*4A
1,$GPRMC,185346,A,5045.0922,N,11355.9607,W,73.217,7.3,200805,17.4,E*667DE
1,$GPGGA,185347,5045.1122,N,11355.9562,W,1,07,1.27,1295.2,M,-17.4,M,,*72E
1,$GPRMC,185347,A,5045.1122,N,11355.9562,W,72.354,8.8,200805,17.4,E*6D72E
1,$GPGGA,185348,5045.1319,N,11355.9509,W,1,07,1.27,1299.4,M,-17.4,M,,*70E
0,$GPRMC,184805,A,5100.8570,N,11332.5702,W,0.000,0.0,030906,17.2,E*50
1,$GPRMC,185348,A,5045.1319,N,11355.9509,W,71.727,10.3,200805,17.4,E*540E
1,$GPGGA,185349,5045.1513,N,11355.9448,W,1,07,1.27,1303.3,M,-17.4,M,,*7CE
1,$GPRMC,185349,A,5045.1513,N,11355.9448,W,71.631,11.8,200805,17.4,E*51CE
1,$GPGGA,185350,5045.1706,N,11355.9377,W,1,07,1.27,1307.0,M,-17.4,M,,*7EE
1,$GPRMC,185350,A,5045.1706,N,11355.9377,W,71.402,14.2,200805,17.4,E*59EE
1,$GPGGA,185351,5045.1896,N,11355.9294,W,1,07,1.27,1310.6,M,-17.4,M,,*75E
1,$GPRMC,185351,A,5045.1896,N,11355.9294,W,71.157,16.6,200805,17.4,E*515E
1,$GPGGA,185352,5045.2084,N,11355.9198,W,1,07,1.27,1313.9,M,-17.4,M,,*7DE
1,$GPRMC,185352,A,5045.2084,N,11355.9198,W,71.473,18.8,200805,17.4,E*56DE
1,$GPGGA,185353,5045.2270,N,11355.9091,W,1,07,1.27,1316.5,M,-17.4,M,,*74E
1,$GPRMC,185353,A,5045.2270,N,11355.9091,W,71.807,20.8,200805,17.4,E*524E
1,$GPGGA,185354,5045.2455,N,11355.8971,W,1,07,1.27,1319.7,M,-17.4,M,,*79E
1,$GPRMC,185354,A,5045.2455,N,11355.8971,W,71.974,23.5,200805,17.4,E*599E
0,$GPGGA,184806,5100.8570,N,11332.5702,W,1,04,1.45,989.9,M,-17.7,M,,*46
1,$GPGGA,185355,5045.2636,N,11355.8838,W,1,07,1.27,1322.9,M,-17.4,M,,*75E
1,$GPRMC,185355,A,5045.2636,N,11355.8838,W,72.046,25.9,200805,17.4,E*525E
1,$GPGGA,185356,5045.2813,N,11355.8693,W,1,08,1.27,1326.4,M,-17.4,M,,*76E
1,$GPRMC,185356,A,5045.2813,N,11355.8693,W,71.892,28.3,200805,17.4,E*526E
1,$GPGGA,185357,5045.2986,N,11355.8537,W,1,08,1.27,1329.9,M,-17.4,M,,*75B
1,$GPRMC,185357,A,5045.2986,N,11355.8537,W,71.860,30.7,200805,17.4,E*535B
1,$GPGGA,185358,5045.3155,N,11355.8372,W,1,08,1.27,1333.2,M,-17.4,M,,*7AB
1,$GPRMC,185358,A,5045.3155,N,11355.8372,W,71.763,32.5,200805,17.4,E*50AB
1,$GPGGA,185359,5045.3321,N,11355.8198,W,1,08,1.27,1336.8,M,-17.4,M,,*73F
1,$GPRMC,185359,A,5045.3321,N,11355.8198,W,71.785,34.4,200805,17.4,E*593F
1,$GPGGA,185400,5045.3482,N,11355.8014,W,1,08,1.27,1340.3,M,-17.4,M,,*79F
1,$GPRMC,185400,A,5045.3482,N,11355.8014,W,71.854,36.6,200805,17.4,E*5A9F
0,$GPRMC,184806,A,5100.8570,N,11332.5702,W,0.000,0.0,030906,17.2,E*53
1,$GPGGA,185401,5045.3638,N,11355.7820,W,1,08,1.27,1343.8,M,-17.4,M,,*73F
1,$GPRMC,185401,A,5045.3638,N,11355.7820,W,71.807,39.2,200805,17.4,E*553F
1,$GPGGA,185402,5045.3790,N,11355.7616,W,1,08,1.27,1347.3,M,-17.4,M,,*77B
1,$GPRMC,185402,A,5045.3790,N,11355.7616,W,71.796,41.3,200805,17.4,E*577B
1,$GPGGA,185403,5045.3936,N,11355.7403,W,1,07,1.27,1350.6,M,-17.4,M,,*7EB
0,$GPGGA,184807,5100.8570,N,11332.5702,W,1,04,1.45,989.0,M,-17.7,M,,*4E
1,$GPRMC,185403,A,5045.3936,N,11355.7403,W,71.897,43.4,200805,17.4,E*59EB
1,$GPGGA,185404,5045.4077,N,11355.7183,W,1,08,1.27,1354.0,M,-17.4,M,,*72E
1,$GPRMC,185404,A,5045.4077,N,11355.7183,W,71.771,45.6,200805,17.4,E*5B2E
1,$GPGGA,185405,5045.4212,N,11355.6954,W,1,08,1.27,1356.9,M,-17.4,M,,*7AF
1,$GPRMC,185405,A,5045.4212,N,11355.6954,W,71.727,47.5,200805,17.4,E*5AAF
0,$GPRMC,184807,A,5100.8570,N,11332.5702,W,0.000,0.0,030906,17.2,E*52
1,$GPGGA,185406,5045.4344,N,11355.6719,W,1,08,1.27,1360.0,M,-17.4,M,,*70F
1,$GPRMC,185406,A,5045.4344,N,11355.6719,W,71.719,49.2,200805,17.4,E*580F
1,$GPGGA,185407,5045.4470,N,11355.6478,W,1,08,1.27,1362.5,M,-17.4,M,,*72B
1,$GPRMC,185407,A,5045.4470,N,11355.6478,W,71.943,50.9,200805,17.4,E*5F2B
1,$GPGGA,185408,5045.4592,N,11355.6229,W,1,08,1.27,1365.7,M,-17.4,M,,*77F
1,$GPRMC,185408,A,5045.4592,N,11355.6229,W,72.282,53.3,200805,17.4,E*537F
1,$GPGGA,185409,5045.4709,N,11355.5970,W,1,08,1.27,1368.6,M,-17.4,M,,*7EF
1,$GPRMC,185409,A,5045.4709,N,11355.5970,W,72.945,55.3,200805,17.4,E*50EF
1,$GPGGA,185410,5045.4821,N,11355.5703,W,1,08,1.27,1371.3,M,-17.4,M,,*74F
1,$GPRMC,185410,A,5045.4821,N,11355.5703,W,73.716,57.0,200805,17.4,E*5F4F
1,$GPGGA,185411,5045.4930,N,11355.5430,W,1,08,1.27,1373.9,M,-17.4,M,,*7FF
0,$GPGGA,184808,5100.8570,N,11332.5702,W,1,04,1.45,988.8,M,-17.7,M,,*48
1,$GPRMC,185411,A,5045.4930,N,11355.5430,W,74.220,58.1,200805,17.4,E*55FF
1,$GPGGA,185412,5045.5038,N,11355.5151,W,1,08,1.27,1376.2,M,-17.4,M,,*70B
1,$GPRMC,185412,A,5045.5038,N,11355.5151,W,74.818,58.8,200805,17.4,E*5C0B
1,$GPGGA,185413,5045.5145,N,11355.4869,W,1,08,1.27,1378.6,M,-17.4,M,,*73B
1,$GPRMC,185413,A,5045.5145,N,11355.4869,W,75.159,59.3,200805,17.4,E*523B
1,$GPGGA,185414,5045.5252,N,11355.4587,W,1,08,1.27,1381.7,M,-17.4,M,,*7BB
1,$GPRMC,185414,A,5045.5252,N,11355.4587,W,75.168,59.0,200805,17.4,E*5CBB
1,$GPGGA,185415,5045.5361,N,11355.4305,W,1,08,1.27,1385.2,M,-17.4,M,,*76B
1,$GPRMC,185415,A,5045.5361,N,11355.4305,W,75.428,58.8,200805,17.4,E*586B
1,$GPGGA,185416,5045.5470,N,11355.4022,W,1,08,1.27,1388.3,M,-17.4,M,,*78B
0,$GPRMC,184808,A,5100.8570,N,11332.5702,W,0.000,0.0,030906,17.2,E*5D
1,$GPRMC,185416,A,5045.5470,N,11355.4022,W,75.771,58.3,200805,17.4,E*5E8B
1,$GPGGA,185417,5045.5581,N,11355.3740,W,1,08,1.27,1391.3,M,-17.4,M,,*7AB
1,$GPRMC,185417,A,5045.5581,N,11355.3740,W,75.925,58.3,200805,17.4,E*5BAB
1,$GPGGA,185418,5045.5692,N,11355.3457,W,1,08,1.27,1394.5,M,-17.4,M,,*72B
1,$GPRMC,185418,A,5045.5692,N,11355.3457,W,76.199,58.0,200805,17.4,E*5F2B
0,$GPGGA,184809,5100.8570,N,11332.5702,W,1,04,1.45,988.4,M,-17.7,M,,*45
1,$GPGGA,185419,5045.5804,N,11355.3173,W,1,08,1.27,1397.5,M,-17.4,M,,*72B
1,$GPRMC,185419,A,5045.5804,N,11355.3173,W,76.478,58.2,200805,17.4,E*542B
1,$GPGGA,185420,5045.5914,N,11355.2887,W,1,08,1.27,1400.6,M,-17.4,M,,*71B
1,$GPRMC,185420,A,5045.5914,N,11355.2887,W,76.703,59.0,200805,17.4,E*511B
1,$GPGGA,185421,5045.6022,N,11355.2598,W,1,08,1.27,1403.7,M,-17.4,M,,*7EB
0,$GPRMC,184809,A,5100.8570,N,11332.5702,W,0.000,0.0,030906,17.2,E*5C
1,$GPRMC,185421,A,5045.6022,N,11355.2598,W,76.670,59.8,200805,17.4,E*51EB
1,$GPGGA,185422,5045.6128,N,11355.2307,W,1,08,1.27,1406.7,M,-17.4,M,,*73B
1,$GPRMC,185422,A,5045.6128,N,11355.2307,W,76.817,60.4,200805,17.4,E*503B
1,$GPGGA,185423,5045.6231,N,11355.2013,W,1,08,1.27,1409.6,M,-17.4,M,,*71F
1,$GPRMC,185423,A,5045.6231,N,11355.2013,W,76.966,61.1,200805,17.4,E*5F1F
1,$GPGGA,185424,5045.6334,N,11355.1718,W,1,08,1.27,1412.7,M,-17.4,M,,*76B
1,$GPRMC,185424,A,5045.6334,N,11355.1718,W,76.725,61.3,200805,17.4,E*586B
1,$GPGGA,185425,5045.6436,N,11355.1424,W,1,08,1.27,1415.9,M,-17.4,M,,*77B
1,$GPRMC,185425,A,5045.6436,N,11355.1424,W,76.627,61.4,200805,17.4,E*547B
1,$GPGGA,185426,5045.6535,N,11355.1129,W,1,08,1.27,1419.1,M,-17.4,M,,*7AB
1,$GPRMC,185426,A,5045.6535,N,11355.1129,W,76.500,62.3,200805,17.4,E*5FAB
1,$GPGGA,185427,5045.6632,N,11355.0831,W,1,08,1.27,1422.6,M,-17.4,M,,*71B
1,$GPRMC,185427,A,5045.6632,N,11355.0831,W,76.297,63.3,200805,17.4,E*531B
0,$GPGGA,184810,5100.8570,N,11332.5702,W,1,04,1.45,988.4,M,-17.7,M,,*4D
1,$GPGGA,185428,5045.6724,N,11355.0532,W,1,08,1.27,1426.3,M,-17.4,M,,*77B
1,$GPRMC,185428,A,5045.6724,N,11355.0532,W,76.020,64.6,200805,17.4,E*587B
1,$GPGGA,185429,5045.6812,N,11355.0231,W,1,08,1.27,1430.2,M,-17.4,M,,*7EF
1,$GPRMC,185429,A,5045.6812,N,11355.0231,W,75.704,65.7,200805,17.4,E*55EF
1,$GPGGA,185430,5045.6895,N,11354.9929,W,1,08,1.27,1434.1,M,-17.4,M,,*74F
1,$GPRMC,185430,A,5045.6895,N,11354.9929,W,75.292,66.8,200805,17.4,E*5E4F
1,$GPGGA,185431,5045.6975,N,11354.9626,W,1,07,1.27,1438.0,M,-17.4,M,,*78F
1,$GPRMC,185431,A,5045.6975,N,11354.9626,W,74.979,67.6,200805,17.4,E*508F
1,$GPGGA,185432,5045.7051,N,11354.9322,W,1,08,1.27,1442.2,M,-17.4,M,,*74E
0,$GPRMC,184810,A,5100.8570,N,11332.5702,W,0.000,0.0,030906,17.2,E*54
1,$GPRMC,185432,A,5045.7051,N,11354.9322,W,74.792,68.2,200805,17.4,E*5C4E
1,$GPGGA,185433,5045.7127,N,11354.9018,W,1,08,1.27,1446.3,M,-17.4,M,,*7AB
1,$GPRMC,185433,A,5045.7127,N,11354.9018,W,74.524,68.5,200805,17.4,E*5FAB
1,$GPGGA,185434,5045.7203,N,11354.8715,W,1,08,1.27,1450.4,M,-17.4,M,,*73B
1,$GPRMC,185434,A,5045.7203,N,11354.8715,W,74.382,68.3,200805,17.4,E*5A3B
1,$GPGGA,185435,5045.7280,N,11354.8414,W,1,08,1.27,1454.4,M,-17.4,M,,*7FB
1,$GPRMC,185435,A,5045.7280,N,11354.8414,W,74.074,67.8,200805,17.4,E*5CFB
1,$GPGGA,185436,5045.7359,N,11354.8115,W,1,08,1.27,1458.5,M,-17.4,M,,*70B
0,$GPGGA,184811,5100.8570,N,11332.5702,W,1,04,1.45,987.8,M,-17.7,M,,*4F
1,$GPRMC,185436,A,5045.7359,N,11354.8115,W,73.742,67.1,200805,17.4,E*520B
1,$GPGGA,185437,5045.7440,N,11354.7820,W,1,08,1.27,1462.7,M,-17.4,M,,*75B
1,$GPRMC,185437,A,5045.7440,N,11354.7820,W,73.291,66.5,200805,17.4,E*525B
1,$GPGGA,185438,5045.7522,N,11354.7528,W,1,08,1.27,1467.3,M,-17.4,M,,*7BB
0,$GPRMC,184811,A,5100.8570,N,11332.5702,W,0.000,0.0,030906,17.2,E*55
1,$GPRMC,185438,A,5045.7522,N,11354.7528,W,72.808,65.7,200805,17.4,E*57BB
1,$GPGGA,185439,5045.7606,N,11354.7239,W,1,08,1.27,1471.8,M,-17.4,M,,*74B
1,$GPRMC,185439,A,5045.7606,N,11354.7239,W,72.246,65.1,200805,17.4,E*524B
1,$GPGGA,185440,5045.7691,N,11354.6954,W,1,08,1.27,1476.4,M,-17.4,M,,*7EB
1,$GPRMC,185440,A,5045.7691,N,11354.6954,W,71.861,64.7,200805,17.4,E*58EB
1,$GPGGA,185441,5045.7776,N,11354.6671,W,1,08,1.27,1480.8,M,-17.4,M,,*7AB
1,$GPRMC,185441,A,5045.7776,N,11354.6671,W,71.428,64.4,200805,17.4,E*5BAB
1,$GPGGA,185442,5045.7862,N,11354.6390,W,1,08,1.27,1485.1,M,-17.4,M,,*75B
1,$GPRMC,185442,A,5045.7862,N,11354.6390,W,71.311,64.1,200805,17.4,E*505B
1,$GPGGA,185443,5045.7949,N,11354.6110,W,1,08,1.27,1489.2,M,-17.4,M,,*79B
0,$GPGGA,184812,5100.8570,N,11332.5702,W,1,04,1.45,988.6,M,-17.7,M,,*4D
1,$GPRMC,185443,A,5045.7949,N,11354.6110,W,71.021,63.9,200805,17.4,E*5C9B
1,$GPGGA,185444,5045.8036,N,11354.5832,W,1,08,1.27,1493.2,M,-17.4,M,,*71B
1,$GPRMC,185444,A,5045.8036,N,11354.5832,W,70.901,63.4,200805,17.4,E*581B
1,$GPGGA,185445,5045.8125,N,11354.5557,W,1,08,1.27,1497.3,M,-17.4,M,,*78B
1,$GPRMC,185445,A,5045.8125,N,11354.5557,W,70.570,62.7,200805,17.4,E*5C8B
1,$GPGGA,185446,5045.8217,N,11354.5284,W,1,08,1.27,1501.3,M,-17.4,M,,*7EB
1,$GPRMC,185446,A,5045.8217,N,11354.5284,W,70.427,61.7,200805,17.4,E*54EB
1,$GPGGA,185447,5045.8311,N,11354.5014,W,1,08,1.27,1505.2,M,-17.4,M,,*76B
1,$GPRMC,185447,A,5045.8311,N,11354.5014,W,70.195,60.8,200805,17.4,E*5B6B
0,$GPRMC,184812,A,5100.8570,N,11332.5702,W,0.000,0.0,030906,17.2,E*56
1,$GPGGA,185448,5045.8408,N,11354.4748,W,1,07,1.27,1508.9,M,-17.4,M,,*70B
1,$GPRMC,185448,A,5045.8408,N,11354.4748,W,70.160,59.8,200805,17.4,E*540B
1,$GPGGA,185449,5045.8508,N,11354.4484,W,1,07,1.27,1512.2,M,-17.4,M,,*73E
1,$GPRMC,185449,A,5045.8508,N,11354.4484,W,70.311,58.5,200805,17.4,E*5F3E
0,$GPGGA,184813,5100.8570,N,11332.5702,W,1,04,1.45,989.3,M,-17.7,M,,*48
1,$GPGGA,185450,5045.8610,N,11354.4224,W,1,08,1.27,1515.0,M,-17.4,M,,*77E
1,$GPRMC,185450,A,5045.8610,N,11354.4224,W,70.612,57.6,200805,17.4,E*5B7E
1,$GPGGA,185451,5045.8716,N,11354.3965,W,1,08,1.27,1517.4,M,-17.4,M,,*7EF
1,$GPRMC,185451,A,5045.8716,N,11354.3965,W,70.980,56.6,200805,17.4,E*51EF
0,$GPRMC,184813,A,5100.8570,N,11332.5702,W,0.000,0.0,030906,17.2,E*57
1,$GPGGA,185452,5045.8826,N,11354.3707,W,1,08,1.27,1519.6,M,-17.4,M,,*77B
1,$GPRMC,185452,A,5045.8826,N,11354.3707,W,71.518,55.4,200805,17.4,E*597B
1,$GPGGA,185453,5045.8941,N,11354.3452,W,1,08,1.27,1521.8,M,-17.4,M,,*70B
1,$GPRMC,185453,A,5045.8941,N,11354.3452,W,71.802,54.1,200805,17.4,E*590B
1,$GPGGA,185454,5045.9061,N,11354.3200,W,1,08,1.27,1523.8,M,-17.4,M,,*7EB
1,$GPRMC,185454,A,5045.9061,N,11354.3200,W,72.433,52.5,200805,17.4,E*5AEB
1,$GPGGA,185455,5045.9186,N,11354.2952,W,1,08,1.27,1526.2,M,-17.4,M,,*75B
1,$GPRMC,185455,A,5045.9186,N,11354.2952,W,72.762,50.9,200805,17.4,E*575B
1,$GPGGA,185456,5045.9317,N,11354.2706,W,1,08,1.27,1528.6,M,-17.4,M,,*79B
1,$GPRMC,185456,A,5045.9317,N,11354.2706,W,73.126,49.7,200805,17.4,E*509B
1,$GPGGA,185457,5045.9450,N,11354.2463,W,1,08,1.27,1531.1,M,-17.4,M,,*73B
1,$GPRMC,185457,A,5045.9450,N,11354.2463,W,73.590,48.8,200805,17.4,E*523B
1,$GPGGA,185458,5045.9586,N,11354.2221,W,1,08,1.27,1533.7,M,-17.4,M,,*72B
1,$GPRMC,185458,A,5045.9586,N,11354.2221,W,74.031,48.4,200805,17.4,E*522B
0,$GPGGA,184814,5100.8570,N,11332.5702,W,1,04,1.45,989.0,M,-17.7,M,,*4C
1,$GPGGA,185459,5045.9724,N,11354.1979,W,1,08,1.27,1536.4,M,-17.4,M,,*7AB
1,$GPRMC,185459,A,5045.9724,N,11354.1979,W,74.383,48.2,200805,17.4,E*50AB
1,$GPGGA,185500,5045.9862,N,11354.1736,W,1,08,1.27,1539.0,M,-17.4,M,,*74B
1,$GPRMC,185500,A,5045.9862,N,11354.1736,W,74.737,48.2,200805,17.4,E*5E4B
1,$GPGGA,185501,5046.0001,N,11354.1492,W,1,08,1.27,1541.8,M,-17.4,M,,*78B
1,$GPRMC,185501,A,5046.0001,N,11354.1492,W,75.089,48.0,200805,17.4,E*548B
1,$GPGGA,185502,5046.0141,N,11354.1248,W,1,08,1.27,1544.8,M,-17.4,M,,*7AB
1,$GPRMC,185502,A,5046.0141,N,11354.1248,W,75.184,47.9,200805,17.4,E*59AB
1,$GPGGA,185503,5046.0282,N,11354.1004,W,1,08,1.27,1547.8,M,-17.4,M,,*7EB
1,$GPRMC,185503,A,5046.0282,N,11354.1004,W,75.553,47.6,200805,17.4,E*5FEB
1,$GPGGA,185504,5046.0424,N,11354.0760,W,1,08,1.27,1550.8,M,-17.4,M,,*71B
0,$GPRMC,184814,A,5100.8570,N,11332.5702,W,0.000,0.0,030906,17.2,E*50
1,$GPRMC,185504,A,5046.0424,N,11354.0760,W,75.751,47.6,200805,17.4,E*561B
1,$GPGGA,185505,5046.0566,N,11354.0515,W,1,08,1.27,1553.8,M,-17.4,M,,*74B
1,$GPRMC,185505,A,5046.0566,N,11354.0515,W,75.913,47.8,200805,17.4,E*564B
1,$GPGGA,185506,5046.0706,N,11354.0267,W,1,08,1.27,1556.8,M,-17.4,M,,*74F
1,$GPRMC,185506,A,5046.0706,N,11354.0267,W,76.050,48.7,200805,17.4,E*5E4F
1,$GPGGA,185507,5046.0843,N,11354.0014,W,1,08,1.27,1559.6,M,-17.4,M,,*7CF
0,$GPGGA,184815,5100.8570,N,11332.5702,W,1,03,1.45,989.2,M,-17.7,M,,*48
1,$GPRMC,185507,A,5046.0843,N,11354.0014,W,76.436,49.9,200805,17.4,E*5CCF
1,$GPGGA,185508,5046.0977,N,11353.9754,W,1,08,1.27,1562.4,M,-17.4,M,,*72F
1,$GPRMC,185508,A,5046.0977,N,11353.9754,W,76.841,51.6,200805,17.4,E*522F
1,$GPGGA,185509,5046.1107,N,11353.9486,W,1,08,1.27,1565.2,M,-17.4,M,,*70B
0,$GPRMC,184815,A,5100.8570,N,11332.5702,W,0.000,0.0,030906,17.2,E*51
1,$GPRMC,185509,A,5046.1107,N,11353.9486,W,77.337,53.3,200805,17.4,E*5D0B
1,$GPGGA,185510,5046.1232,N,11353.9212,W,1,08,1.27,1568.2,M,-17.4,M,,*7BB
1,$GPRMC,185510,A,5046.1232,N,11353.9212,W,77.576,54.9,200805,17.4,E*55BB
1,$GPGGA,185511,5046.1354,N,11353.8932,W,1,08,1.27,1571.3,M,-17.4,M,,*7AB
1,$GPRMC,185511,A,5046.1354,N,11353.8932,W,77.795,56.1,200805,17.4,E*58AB
1,$GPGGA,185512,5046.1472,N,11353.8647,W,1,08,1.27,1574.5,M,-17.4,M,,*74B
1,$GPRMC,185512,A,5046.1472,N,11353.8647,W,77.899,57.1,200805,17.4,E*574B
1,$GPGGA,185513,5046.1588,N,11353.8360,W,1,08,1.27,1578.1,M,-17.4,M,,*79B
1,$GPRMC,185513,A,5046.1588,N,11353.8360,W,77.933,57.9,200805,17.4,E*5B9B
1,$GPGGA,185514,5046.1702,N,11353.8070,W,1,08,1.27,1581.8,M,-17.4,M,,*73F
0,$GPGGA,184816,5100.8570,N,11332.5702,W,1,04,1.45,989.9,M,-17.7,M,,*47
1,$GPRMC,185514,A,5046.1702,N,11353.8070,W,77.800,58.6,200805,17.4,E*5F3F
1,$GPGGA,185516,5046.1925,N,11353.7489,W,1,08,1.27,1589.0,M,-17.4,M,,*77B
1,$GPRMC,185516,A,5046.1925,N,11353.7489,W,77.800,58.6,200805,17.4,E*5B7B
1,$GPGGA,185516,5046.1922,N,11353.7488,W,1,08,1.27,1589.9,M,-17.4,M,,*78B
1,$GPRMC,185516,A,5046.1922,N,11353.7488,W,77.218,59.6,200805,17.4,E*5F8B
1,$GPGGA,185517,5046.2030,N,11353.7197,W,1,08,1.27,1594.2,M,-17.4,M,,*7CF
1,$GPRMC,185517,A,5046.2030,N,11353.7197,W,77.026,59.8,200805,17.4,E*5DCF
1,$GPGGA,185518,5046.2137,N,11353.6906,W,1,08,1.27,1598.6,M,-17.4,M,,*7CF
1,$GPRMC,185518,A,5046.2137,N,11353.6906,W,76.531,59.9,200805,17.4,E*56CF
1,$GPGGA,185519,5046.2244,N,11353.6618,W,1,08,1.27,1602.9,M,-17.4,M,,*75B
1,$GPRMC,185519,A,5046.2244,N,11353.6618,W,76.258,59.6,200805,17.4,E*575B
1,$GPGGA,185520,5046.2352,N,11353.6331,W,1,08,1.27,1607.2,M,-17.4,M,,*79F
0,$GPRMC,184816,A,5100.8570,N,11332.5702,W,0.000,0.0,030906,17.2,E*52
1,$GPRMC,185520,A,5046.2352,N,11353.6331,W,76.016,58.9,200805,17.4,E*539F
1,$GPGGA,185521,5046.2462,N,11353.6048,W,1,07,1.27,1611.3,M,-17.4,M,,*78F
1,$GPRMC,185521,A,5046.2462,N,11353.6048,W,75.672,58.1,200805,17.4,E*548F
1,$GPGGA,185522,5046.2575,N,11353.5770,W,1,07,1.27,1615.3,M,-17.4,M,,*77E
0,$GPGGA,184817,5100.8570,N,11332.5702,W,1,04,1.45,989.2,M,-17.7,M,,*4D
1,$GPRMC,185522,A,5046.2575,N,11353.5770,W,75.390,57.0,200805,17.4,E*587E
1,$GPGGA,185523,5046.2690,N,11353.5495,W,1,08,1.27,1619.1,M,-17.4,M,,*77A
1,$GPRMC,185523,A,5046.2690,N,11353.5495,W,75.263,56.2,200805,17.4,E*577A
1,$GPGGA,185524,5046.2807,N,11353.5224,W,1,08,1.27,1622.7,M,-17.4,M,,*72B
0,$GPRMC,184817,A,5100.8570,N,11332.5702,W,0.000,0.0,030906,17.2,E*53
1,$GPRMC,185524,A,5046.2807,N,11353.5224,W,74.991,55.3,200805,17.4,E*592B
1,$GPGGA,185525,5046.2926,N,11353.4956,W,1,08,1.27,1626.1,M,-17.4,M,,*7CB
1,$GPRMC,185525,A,5046.2926,N,11353.4956,W,75.125,54.7,200805,17.4,E*56CB
1,$GPGGA,185526,5046.3047,N,11353.4688,W,1,08,1.27,1629.4,M,-17.4,M,,*76B
1,$GPRMC,185526,A,5046.3047,N,11353.4688,W,75.248,54.5,200805,17.4,E*5C6B
1,$GPGGA,185527,5046.3169,N,11353.4420,W,1,08,1.27,1632.7,M,-17.4,M,,*73B
1,$GPRMC,185527,A,5046.3169,N,11353.4420,W,75.491,54.4,200805,17.4,E*533B
1,$GPGGA,185528,5046.3291,N,11353.4150,W,1,08,1.27,1635.7,M,-17.4,M,,*7DB
1,$GPRMC,185528,A,5046.3291,N,11353.4150,W,75.918,54.5,200805,17.4,E*57DB
1,$GPGGA,185529,5046.3412,N,11353.3879,W,1,08,1.27,1638.7,M,-17.4,M,,*79B
1,$GPRMC,185529,A,5046.3412,N,11353.3879,W,76.239,55.0,200805,17.4,E*519B
1,$GPGGA,185530,5046.3533,N,11353.3604,W,1,08,1.27,1641.5,M,-17.4,M,,*7BB
1,$GPRMC,185530,A,5046.3533,N,11353.3604,W,76.802,55.4,200805,17.4,E*59BB
0,$GPGGA,184818,5100.8570,N,11332.5702,W,1,04,1.45,990.6,M,-17.7,M,,*4E
1,$GPGGA,185531,5046.3653,N,11353.3325,W,1,08,1.27,1644.4,M,-17.4,M,,*7DF
1,$GPRMC,185531,A,5046.3653,N,11353.3325,W,77.145,56.1,200805,17.4,E*56DF
1,$GPGGA,185532,5046.3772,N,11353.3044,W,1,08,1.27,1647.2,M,-17.4,M,,*7DB
1,$GPRMC,185532,A,5046.3772,N,11353.3044,W,77.491,56.5,200805,17.4,E*5BDB
1,$GPGGA,185533,5046.3891,N,11353.2760,W,1,08,1.27,1650.1,M,-17.4,M,,*7BF
1,$GPRMC,185533,A,5046.3891,N,11353.2760,W,77.908,56.7,200805,17.4,E*57BF
1,$GPGGA,185534,5046.4010,N,11353.2475,W,1,08,1.27,1653.2,M,-17.4,M,,*7DF
1,$GPRMC,185534,A,5046.4010,N,11353.2475,W,78.047,56.7,200805,17.4,E*5CDF
1,$GPGGA,185535,5046.4129,N,11353.2190,W,1,08,1.27,1656.5,M,-17.4,M,,*7BB
1,$GPRMC,185535,A,5046.4129,N,11353.2190,W,77.780,56.5,200805,17.4,E*59BB
1,$GPGGA,185536,5046.4250,N,11353.1909,W,1,08,1.27,1660.2,M,-17.4,M,,*7CB
0,$GPRMC,184818,A,5100.8570,N,11332.5702,W,0.000,0.0,030906,17.2,E*5C
1,$GPRMC,185536,A,5046.4250,N,11353.1909,W,77.438,55.8,200805,17.4,E*52CB
1,$GPGGA,185537,5046.4373,N,11353.1631,W,1,08,1.27,1664.2,M,-17.4,M,,*7DB
0,$GPGGA,184819,5100.8570,N,11332.5702,W,1,03,1.45,990.9,M,-17.7,M,,*47
1,$GPRMC,185537,A,5046.4373,N,11353.1631,W,77.298,54.6,200805,17.4,E*54DB
1,$GPGGA,185538,5046.4501,N,11353.1359,W,1,08,1.27,1668.5,M,-17.4,M,,*71B
1,$GPRMC,185538,A,5046.4501,N,11353.1359,W,76.749,53.0,200805,17.4,E*5A1B
1,$GPGGA,185539,5046.4632,N,11353.1095,W,1,08,1.27,1673.2,M,-17.4,M,,*7DB
1,$GPRMC,185539,A,5046.4632,N,11353.1095,W,76.127,51.2,200805,17.4,E*55DB
0,$GPRMC,184819,A,5100.8570,N,11332.5702,W,0.000,0.0,030906,17.2,E*5D
1,$GPGGA,185540,5046.4767,N,11353.0840,W,1,08,1.27,1677.8,M,-17.4,M,,*7DB
1,$GPRMC,185540,A,5046.4767,N,11353.0840,W,75.428,49.4,200805,17.4,E*5DDB
1,$GPGGA,185541,5046.4905,N,11353.0592,W,1,08,1.27,1681.8,M,-17.4,M,,*7DB
1,$GPRMC,185541,A,5046.4905,N,11353.0592,W,75.374,48.3,200805,17.4,E*5CDB
1,$GPGGA,185542,5046.5045,N,11353.0346,W,1,08,1.27,1684.9,M,-17.4,M,,*79B
1,$GPRMC,185542,A,5046.5045,N,11353.0346,W,75.847,47.9,200805,17.4,E*529B
1,$GPGGA,185543,5046.5185,N,11353.0096,W,1,08,1.27,1687.5,M,-17.4,M,,*74B
1,$GPRMC,185543,A,5046.5185,N,11353.0096,W,76.610,48.9,200805,17.4,E*504B
1,$GPGGA,185544,5046.5321,N,11352.9838,W,1,07,1.27,1690.0,M,-17.4,M,,*77F
1,$GPRMC,185544,A,5046.5321,N,11352.9838,W,77.409,50.9,200805,17.4,E*5D7F
1,$GPGGA,185546,5046.5591,N,11352.9312,W,1,07,1.27,1695.4,M,-17.4,M,,*7AE
1,$GPRMC,185546,A,5046.5591,N,11352.9312,W,77.409,50.9,200805,17.4,E*51AE
1,$GPGGA,185546,5046.5578,N,11352.9290,W,1,08,1.27,1695.0,M,-17.4,M,,*7DE
0,$GPGGA,184820,5100.8570,N,11332.5702,W,1,04,1.45,990.8,M,-17.7,M,,*4B
1,$GPRMC,185546,A,5046.5578,N,11352.9290,W,78.584,55.6,200805,17.4,E*5CDE
1,$GPGGA,185547,5046.5697,N,11352.9001,W,1,08,1.27,1697.7,M,-17.4,M,,*71B
1,$GPRMC,185547,A,5046.5697,N,11352.9001,W,78.892,57.8,200805,17.4,E*531B
1,$GPGGA,185548,5046.5810,N,11352.8704,W,1,08,1.27,1700.3,M,-17.4,M,,*77B
1,$GPRMC,185548,A,5046.5810,N,11352.8704,W,79.563,59.7,200805,17.4,E*5D7B
1,$GPGGA,185549,5046.5917,N,11352.8399,W,1,07,1.27,1702.8,M,-17.4,M,,*76F
1,$GPRMC,185549,A,5046.5917,N,11352.8399,W,80.033,61.8,200805,17.4,E*586F
0,$GPRMC,184820,A,5100.8570,N,11332.5702,W,0.000,0.0,030906,17.2,E*57
1,$GPGGA,185550,5046.6017,N,11352.8087,W,1,06,1.27,1705.3,M,-17.4,M,,*75A
1,$GPRMC,185550,A,5046.6017,N,11352.8087,W,80.478,63.8,200805,17.4,E*5F5A
1,$GPGGA,185551,5046.6110,N,11352.7766,W,1,06,1.27,1707.9,M,-17.4,M,,*7DF
1,$GPRMC,185551,A,5046.6110,N,11352.7766,W,81.016,65.8,200805,17.4,E*54DF
1,$GPGGA,185552,5046.6198,N,11352.7439,W,1,07,1.27,1710.4,M,-17.4,M,,*7DF
1,$GPRMC,185552,A,5046.6198,N,11352.7439,W,81.467,67.7,200805,17.4,E*51DF
0,$GPGGA,184821,5100.8570,N,11332.5702,W,1,04,1.45,991.3,M,-17.7,M,,*40
1,$GPGGA,185553,5046.6279,N,11352.7107,W,1,08,1.27,1712.8,M,-17.4,M,,*79A
1,$GPRMC,185553,A,5046.6279,N,11352.7107,W,81.913,69.5,200805,17.4,E*569A
1,$GPGGA,185554,5046.6354,N,11352.6768,W,1,08,1.27,1715.2,M,-17.4,M,,*73F
1,$GPRMC,185554,A,5046.6354,N,11352.6768,W,82.354,71.0,200805,17.4,E*573F
1,$GPGGA,185555,5046.6426,N,11352.6425,W,1,08,1.27,1717.7,M,-17.4,M,,*7DF
0,$GPRMC,184821,A,5100.8570,N,11332.5702,W,0.000,0.0,030906,17.2,E*56
1,$GPRMC,185555,A,5046.6426,N,11352.6425,W,82.748,72.2,200805,17.4,E*56DF
1,$GPGGA,185556,5046.6494,N,11352.6079,W,1,08,1.27,1720.0,M,-17.4,M,,*79B
1,$GPRMC,185556,A,5046.6494,N,11352.6079,W,83.090,73.0,200805,17.4,E*519B
1,$GPGGA,185557,5046.6560,N,11352.5730,W,1,08,1.27,1722.6,M,-17.4,M,,*7FB
1,$GPRMC,185557,A,5046.6560,N,11352.5730,W,83.246,73.7,200805,17.4,E*5DFB
1,$GPGGA,185558,5046.6624,N,11352.5380,W,1,08,1.27,1725.2,M,-17.4,M,,*7FB
1,$GPRMC,185558,A,5046.6624,N,11352.5380,W,83.535,74.0,200805,17.4,E*5DFB
1,$GPGGA,185559,5046.6689,N,11352.5028,W,1,08,1.27,1727.9,M,-17.4,M,,*71B
1,$GPRMC,185559,A,5046.6689,N,11352.5028,W,83.815,74.0,200805,17.4,E*551B
1,$GPGGA,185600,5046.6754,N,11352.4675,W,1,08,1.27,1730.5,M,-17.4,M,,*7AB
0,$GPGGA,184822,5100.8570,N,11332.5702,W,1,04,1.45,991.0,M,-17.7,M,,*40
1,$GPRMC,185600,A,5046.6754,N,11352.4675,W,84.027,73.8,200805,17.4,E*55AB
1,$GPGGA,185601,5046.6820,N,11352.4321,W,1,08,1.27,1733.0,M,-17.4,M,,*75F
1,$GPRMC,185601,A,5046.6820,N,11352.4321,W,84.213,73.6,200805,17.4,E*575F
1,$GPGGA,185602,5046.6886,N,11352.3968,W,1,08,1.27,1735.1,M,-17.4,M,,*7DF
1,$GPRMC,185602,A,5046.6886,N,11352.3968,W,84.237,73.4,200805,17.4,E*5CDF
1,$GPGGA,185603,5046.6954,N,11352.3613,W,1,08,1.27,1736.6,M,-17.4,M,,*75F
1,$GPRMC,185603,A,5046.6954,N,11352.3613,W,84.669,73.0,200805,17.4,E*5B5F
1,$GPGGA,185604,5046.7023,N,11352.3257,W,1,08,1.27,1737.2,M,-17.4,M,,*7BF
0,$GPRMC,184822,A,5100.8570,N,11332.5702,W,0.000,0.0,030906,17.2,E*55
1,$GPRMC,185604,A,5046.7023,N,11352.3257,W,85.256,72.8,200805,17.4,E*50BF
1,$GPGGA,185605,5046.7093,N,11352.2899,W,1,08,1.27,1737.4,M,-17.4,M,,*7EB
1,$GPRMC,185605,A,5046.7093,N,11352.2899,W,85.885,72.7,200805,17.4,E*58EB
1,$GPGGA,185606,5046.7163,N,11352.2538,W,1,08,1.27,1737.3,M,-17.4,M,,*72B
0,$GPGGA,184823,5100.8570,N,11332.5702,W,1,04,1.45,990.9,M,-17.7,M,,*49
1,$GPRMC,185606,A,5046.7163,N,11352.2538,W,86.535,72.7,200805,17.4,E*562B
1,$GPGGA,185607,5046.7234,N,11352.2175,W,1,08,1.27,1736.9,M,-17.4,M,,*74B
1,$GPRMC,185607,A,5046.7234,N,11352.2175,W,87.053,72.9,200805,17.4,E*514B
1,$GPGGA,185608,5046.7305,N,11352.1810,W,1,08,1.27,1736.7,M,-17.4,M,,*7FB
0,$GPRMC,184823,A,5100.8570,N,11332.5702,W,0.000,0.0,030906,17.2,E*54
1,$GPRMC,185608,A,5046.7305,N,11352.1810,W,87.373,73.0,200805,17.4,E*5DFB
1,$GPGGA,185609,5046.7377,N,11352.1443,W,1,08,1.27,1736.2,M,-17.4,M,,*74B
1,$GPRMC,185609,A,5046.7377,N,11352.1443,W,87.946,73.0,200805,17.4,E*5F4B
1,$GPGGA,185610,5046.7448,N,11352.1073,W,1,08,1.27,1735.4,M,-17.4,M,,*75B
1,$GPRMC,185610,A,5046.7448,N,11352.1073,W,88.438,73.1,200805,17.4,E*515B
1,$GPGGA,185611,5046.7518,N,11352.0701,W,1,07,1.27,1734.5,M,-17.4,M,,*7CB
1,$GPRMC,185611,A,5046.7518,N,11352.0701,W,88.935,73.4,200805,17.4,E*52CB
1,$GPGGA,185612,5046.7588,N,11352.0326,W,1,07,1.27,1733.8,M,-17.4,M,,*7DE
1,$GPRMC,185612,A,5046.7588,N,11352.0326,W,89.458,73.7,200805,17.4,E*5DDE
1,$GPGGA,185613,5046.7657,N,11351.9949,W,1,08,1.27,1733.1,M,-17.4,M,,*72E
1,$GPRMC,185613,A,5046.7657,N,11351.9949,W,89.832,74.1,200805,17.4,E*552E
1,$GPGGA,185614,5046.7724,N,11351.9570,W,1,08,1.27,1732.7,M,-17.4,M,,*71B
1,$GPRMC,185614,A,5046.7724,N,11351.9570,W,90.114,74.7,200805,17.4,E*521B
1,$GPGGA,185615,5046.7789,N,11351.9189,W,1,07,1.27,1732.3,M,-17.4,M,,*7EB
1,$GPRMC,185615,A,5046.7789,N,11351.9189,W,90.241,74.9,200805,17.4,E*5BEB
1,$GPGGA,185616,5046.7853,N,11351.8807,W,1,07,1.27,1731.7,M,-17.4,M,,*7CE
0,$GPGGA,184824,5100.8570,N,11332.5702,W,1,04,1.45,991.4,M,-17.7,M,,*42
1,$GPRMC,185616,A,5046.7853,N,11351.8807,W,90.516,75.2,200805,17.4,E*51CE
1,$GPGGA,185617,5046.7916,N,11351.8423,W,1,07,1.27,1731.0,M,-17.4,M,,*70E
1,$GPRMC,185617,A,5046.7916,N,11351.8423,W,90.695,75.5,200805,17.4,E*550E
1,$GPGGA,185618,5046.7979,N,11351.8039,W,1,07,1.27,1730.6,M,-17.4,M,,*7EE
1,$GPRMC,185618,A,5046.7979,N,11351.8039,W,90.880,75.7,200805,17.4,E*54EE
1,$GPGGA,185619,5046.8040,N,11351.7653,W,1,06,1.27,1730.2,M,-17.4,M,,*73E
1,$GPRMC,185619,A,5046.8040,N,11351.7653,W,90.849,76.0,200805,17.4,E*5D3E
1,$GPGGA,185620,5046.8101,N,11351.7267,W,1,08,1.27,1729.8,M,-17.4,M,,*72B
1,$GPRMC,185620,A,5046.8101,N,11351.7267,W,90.887,76.3,200805,17.4,E*512B
1,$GPGGA,185621,5046.8160,N,11351.6880,W,1,07,1.27,1730.1,M,-17.4,M,,*78B
0,$GPRMC,184824,A,5100.8570,N,11332.5702,W,0.000,0.0,030906,17.2,E*53
1,$GPRMC,185621,A,5046.8160,N,11351.6880,W,90.824,76.6,200805,17.4,E*598B
1,$GPGGA,185622,5046.8218,N,11351.6493,W,1,07,1.27,1730.7,M,-17.4,M,,*7FE
1,$GPRMC,185622,A,5046.8218,N,11351.6493,W,90.647,76.9,200805,17.4,E*5CFE
1,$GPGGA,185623,5046.8275,N,11351.6107,W,1,07,1.27,1731.5,M,-17.4,M,,*7EE
1,$GPRMC,185623,A,5046.8275,N,11351.6107,W,90.181,77.1,200805,17.4,E*5AEE
1,$GPGGA,185624,5046.8330,N,11351.5722,W,1,07,1.27,1732.5,M,-17.4,M,,*78E
0,$GPGGA,184825,5100.8570,N,11332.5702,W,1,03,1.45,991.6,M,-17.7,M,,*46
1,$GPRMC,185624,A,5046.8330,N,11351.5722,W,89.848,77.4,200805,17.4,E*5E8E
1,$GPGGA,185625,5046.8384,N,11351.5339,W,1,07,1.27,1733.6,M,-17.4,M,,*7AE
1,$GPRMC,185625,A,5046.8384,N,11351.5339,W,89.456,77.6,200805,17.4,E*5FAE
0,$GPRMC,184825,A,5100.8570,N,11332.5702,W,0.000,0.0,030906,17.2,E*52
1,$GPGGA,185626,5046.8436,N,11351.4957,W,1,07,1.27,1734.7,M,-17.4,M,,*72E
1,$GPRMC,185626,A,5046.8436,N,11351.4957,W,89.055,78.0,200805,17.4,E*5F2E
1,$GPGGA,185627,5046.8486,N,11351.4576,W,1,07,1.27,1735.6,M,-17.4,M,,*77E
1,$GPRMC,185627,A,5046.8486,N,11351.4576,W,88.587,78.3,200805,17.4,E*527E
1,$GPGGA,185628,5046.8535,N,11351.4197,W,1,07,1.27,1736.3,M,-17.4,M,,*7CA
1,$GPRMC,185628,A,5046.8535,N,11351.4197,W,88.474,78.6,200805,17.4,E*57CA
1,$GPGGA,185629,5046.8581,N,11351.3817,W,1,07,1.27,1737.0,M,-17.4,M,,*76E
1,$GPRMC,185629,A,5046.8581,N,11351.3817,W,88.330,79.2,200805,17.4,E*5D6E
1,$GPGGA,185630,5046.8626,N,11351.3437,W,1,08,1.27,1737.4,M,-17.4,M,,*75A
1,$GPRMC,185630,A,5046.8626,N,11351.3437,W,88.168,79.6,200805,17.4,E*5E5A
1,$GPGGA,185631,5046.8668,N,11351.3058,W,1,08,1.27,1737.6,M,-17.4,M,,*71F
1,$GPRMC,185631,A,5046.8668,N,11351.3058,W,88.139,80.1,200805,17.4,E*5D1F
1,$GPGGA,185632,5046.8708,N,11351.2677,W,1,08,1.27,1737.6,M,-17.4,M,,*7FF
0,$GPGGA,184826,5100.8570,N,11332.5702,W,1,03,1.45,991.8,M,-17.7,M,,*4B
1,$GPRMC,185632,A,5046.8708,N,11351.2677,W,88.277,80.6,200805,17.4,E*5DFF
1,$GPGGA,185633,5046.8746,N,11351.2295,W,1,07,1.27,1737.3,M,-17.4,M,,*76F
1,$GPRMC,185633,A,5046.8746,N,11351.2295,W,88.453,81.2,200805,17.4,E*5B6F
1,$GPGGA,185634,5046.8782,N,11351.1911,W,1,07,1.27,1736.8,M,-17.4,M,,*77E
1,$GPRMC,185634,A,5046.8782,N,11351.1911,W,88.822,81.6,200805,17.4,E*5E7E
1,$GPGGA,185635,5046.8815,N,11351.1526,W,1,07,1.27,1735.8,M,-17.4,M,,*7CA
1,$GPRMC,185635,A,5046.8815,N,11351.1526,W,89.142,82.1,200805,17.4,E*5CCA
1,$GPGGA,185636,5046.8846,N,11351.1138,W,1,06,1.27,1735.0,M,-17.4,M,,*7BA
1,$GPRMC,185636,A,5046.8846,N,11351.1138,W,89.413,82.9,200805,17.4,E*5BBA
1,$GPGGA,185637,5046.8874,N,11351.0748,W,1,06,1.27,1734.3,M,-17.4,M,,*79F
0,$GPRMC,184826,A,5100.8570,N,11332.5702,W,0.000,0.0,030906,17.2,E*51
1,$GPRMC,185637,A,5046.8874,N,11351.0748,W,89.859,83.6,200805,17.4,E*579F
1,$GPGGA,185638,5046.8899,N,11351.0357,W,1,06,1.27,1733.5,M,-17.4,M,,*7EF
1,$GPRMC,185638,A,5046.8899,N,11351.0357,W,90.119,84.3,200805,17.4,E*56EF
1,$GPGGA,185639,5046.8921,N,11350.9963,W,1,07,1.27,1732.8,M,-17.4,M,,*75F
1,$GPRMC,185639,A,5046.8921,N,11350.9963,W,90.511,85.0,200805,17.4,E*5E5F
1,$GPGGA,185640,5046.8940,N,11350.9567,W,1,07,1.27,1732.1,M,-17.4,M,,*7DE
0,$GPGGA,184827,5100.8570,N,11332.5702,W,1,04,1.45,991.5,M,-17.7,M,,*40
1,$GPRMC,185640,A,5046.8940,N,11350.9567,W,90.755,85.7,200805,17.4,E*5ADE
1,$GPGGA,185641,5046.8956,N,11350.9170,W,1,07,1.27,1731.4,M,-17.4,M,,*7FE
1,$GPRMC,185641,A,5046.8956,N,11350.9170,W,91.142,86.5,200805,17.4,E*5EFE
0,$GPRMC,184827,A,5100.8570,N,11332.5702,W,0.000,0.0,030906,17.2,E*50
1,$GPGGA,185642,5046.8969,N,11350.8771,W,1,07,1.27,1730.9,M,-17.4,M,,*7AE
1,$GPRMC,185642,A,5046.8969,N,11350.8771,W,91.366,87.3,200805,17.4,E*54AE
1,$GPGGA,185643,5046.8978,N,11350.8371,W,1,07,1.27,1730.3,M,-17.4,M,,*75E
1,$GPRMC,185643,A,5046.8978,N,11350.8371,W,91.467,88.1,200805,17.4,E*5A5E
1,$GPGGA,185644,5046.8983,N,11350.7970,W,1,06,1.27,1730.0,M,-17.4,M,,*70A
1,$GPRMC,185644,A,5046.8983,N,11350.7970,W,91.624,88.9,200805,17.4,E*500A
1,$GPGGA,185645,5046.8986,N,11350.7568,W,1,08,1.27,1730.1,M,-17.4,M,,*7EF
1,$GPRMC,185645,A,5046.8986,N,11350.7568,W,91.941,89.7,200805,17.4,E*52EF
1,$GPGGA,185646,5046.8986,N,11350.7165,W,1,08,1.27,1730.3,M,-17.4,M,,*76F
1,$GPRMC,185646,A,5046.8986,N,11350.7165,W,91.980,90.4,200805,17.4,E*5E6F
1,$GPGGA,185647,5046.8983,N,11350.6763,W,1,08,1.27,1730.8,M,-17.4,M,,*78F
1,$GPRMC,185647,A,5046.8983,N,11350.6763,W,91.797,90.9,200805,17.4,E*5E8F
1,$GPGGA,185648,5046.8979,N,11350.6361,W,1,08,1.27,1731.4,M,-17.4,M,,*79F
1,$GPRMC,185648,A,5046.8979,N,11350.6361,W,91.656,91.2,200805,17.4,E*549F
0,$GPGGA,184828,5100.8570,N,11332.5702,W,1,04,1.45,990.2,M,-17.7,M,,*49
1,$GPGGA,185649,5046.8973,N,11350.5960,W,1,08,1.27,1732.2,M,-17.4,M,,*7FF
1,$GPRMC,185649,A,5046.8973,N,11350.5960,W,91.492,91.4,200805,17.4,E*5BFF
1,$GPGGA,185650,5046.8968,N,11350.5560,W,1,08,1.27,1733.1,M,-17.4,M,,*73B
1,$GPRMC,185650,A,5046.8968,N,11350.5560,W,91.111,91.2,200805,17.4,E*5D3B
1,$GPGGA,185651,5046.8964,N,11350.5161,W,1,08,1.27,1734.1,M,-17.4,M,,*7CB
1,$GPRMC,185651,A,5046.8964,N,11350.5161,W,90.924,91.0,200805,17.4,E*58CB
1,$GPGGA,185652,5046.8960,N,11350.4764,W,1,08,1.27,1734.8,M,-17.4,M,,*70B
1,$GPRMC,185652,A,5046.8960,N,11350.4764,W,90.568,90.8,200805,17.4,E*500B
1,$GPGGA,185653,5046.8957,N,11350.4368,W,1,08,1.27,1735.5,M,-17.4,M,,*71F
1,$GPRMC,185653,A,5046.8957,N,11350.4368,W,90.456,90.5,200805,17.4,E*5C1F
0,$GPRMC,184828,A,5100.8570,N,11332.5702,W,0.000,0.0,030906,17.2,E*5F
1,$GPGGA,185654,5046.8955,N,11350.3972,W,1,08,1.27,1736.1,M,-17.4,M,,*75F
1,$GPRMC,185654,A,5046.8955,N,11350.3972,W,90.285,90.4,200805,17.4,E*565F
